[
{"type":"header","version":"5.0.3","comment":"Export to JSON plugin for PHPMyAdmin"},
{"type":"database","name":"final"},
{"type":"table","name":"itinlist","database":"final","data":
[
{"id":"1","place_id":"ChIJy02Q7MEjaDQRVuRcRdQpwc0","title":"國立中央大學","lat":"24.9678305","lng":"121.1949833","address":"桃園中壢區中大路300號","city":"桃園"},
{"id":"2","place_id":"ChIJ6xk1jsEjaDQRRt2bAZcNHvY","title":"浯陽科技有限公司","lat":"24.9684297","lng":"121.1959266","address":"桃園中壢區中大路300號","city":"桃園"},
{"id":"3","place_id":"ChIJy02Q7MEjaDQRuTW-JBd9mWc","title":"全家便利商店 FamilyMart -","lat":"24.9705479","lng":"121.1957783","address":"桃園中壢區中大路300號","city":"桃園"},
{"id":"4","place_id":"ChIJrQdF-sEjaDQR5ITw-drFWi4","title":"中央大學中文系系辦公室","lat":"24.9689026","lng":"121.1945355","address":"桃園中壢區中大路300號文學二館313 室","city":"桃園"},
{"id":"5","place_id":"ChIJZwWEC-ojaDQRVs1qbCQVQ-E","title":"小中大電視台","lat":"24.9683863","lng":"121.1939138","address":"桃園中壢區中大路","city":"桃園"},
{"id":"6","place_id":"ChIJy02Q7MEjaDQRRMcYzSU5-gM","title":"國立中央大學藝文中心","lat":"24.9694597","lng":"121.1952003","address":"桃園中壢區中大路300號103室一樓人文社會科學大樓","city":"桃園"},
{"id":"7","place_id":"ChIJUbpPeMEjaDQRFZMoz5cLQUk","title":"新陶芳庭園餐廳","lat":"24.9691156","lng":"121.1986983","address":"桃園中壢區中大路170巷19-5號","city":"桃園"},
{"id":"8","place_id":"ChIJ6xk1jsEjaDQRO1i0aGe6-V8","title":"107電影院","lat":"24.9692905","lng":"121.1952617","address":"桃園中壢區中大路300號","city":"桃園"},
{"id":"9","place_id":"ChIJc0ObH8IjaDQRm3FuSY8wOt8","title":"國立中央大學黑盒子表演藝術中心","lat":"24.9693088","lng":"121.1953272","address":"桃園中壢區中大路300號","city":"桃園"},
{"id":"10","place_id":"ChIJ81Y-o_8jaDQRfO_8iMNxChk","title":"好時好食","lat":"24.9693148","lng":"121.1952688","address":"桃園中壢區中大路300號 （中央大學 工程二館 資策會","city":"桃園"},
{"id":"11","place_id":"ChIJZZIkH8IjaDQRoBRjjdW6Vfo","title":"學習與教學研究所","lat":"24.9694626","lng":"121.1952341","address":"桃園中壢區過嶺路一段26巷","city":"桃園"},
{"id":"12","place_id":"ChIJSSEy9nsjaDQR-WyBuT3-z70","title":"國立中央大學文學三館","lat":"24.9694114","lng":"121.1951958","address":"桃園中壢區五權里","city":"桃園"},
{"id":"13","place_id":"ChIJf5YDi8EjaDQRElkPYiuS2LY","title":"中大警衛室","lat":"24.968938","lng":"121.195526","address":"桃園Taiwan","city":"桃園"},
{"id":"14","place_id":"ChIJw47EHsIjaDQR5zkFRc0vYW4","title":"中央大學通識教育中心","lat":"24.9694826","lng":"121.1951433","address":"桃園中壢區中大路300號","city":"桃園"},
{"id":"15","place_id":"ChIJAydui8EjaDQROoS9ZLthihY","title":"中央大學警衛室","lat":"24.968847","lng":"121.195526","address":"桃園Taiwan","city":"桃園"},
{"id":"16","place_id":"ChIJ7xo1LMIjaDQRwM73yYPyayU","title":"中央大學圓環停車場","lat":"24.9689728","lng":"121.1963723","address":"桃園中壢區中大路300號","city":"桃園"},
{"id":"17","place_id":"ChIJredAPsIjaDQRftCQtP_u7fI","title":"國立中央大學男九舍","lat":"24.9702276","lng":"121.1954749","address":"桃園中壢區中大路320桃園市中壢區中大路300號","city":"桃園"},
{"id":"18","place_id":"ChIJmUihOMIjaDQRBtAXmDv3v1A","title":"圖美數位輸出影印中心 2F","lat":"24.9703692","lng":"121.1958041","address":"桃園中壢區中大路300號","city":"桃園"},
{"id":"19","place_id":"ChIJy0QTIOgjaDQR4r49N-UHUV8","title":"賈董的麵","lat":"24.9703867","lng":"121.1957101","address":"桃園中壢區中大路320號","city":"桃園"},
{"id":"20","place_id":"ChIJ_cLr78MjaDQRO6sddGAaz5I","title":"桃園市民間療法協會","lat":"24.96907509999999","lng":"121.1988846","address":"桃園中壢區中大路170巷19之5號","city":"桃園"},
{"id":"21","place_id":"ChIJs7W0ZysjaDQRFKzia6MqjWw","title":"家適美隱形鐵窗(中壢)","lat":"24.97044","lng":"121.196951","address":"桃園中壢區河南路137號","city":"桃園"},
{"id":"22","place_id":"ChIJn-ZHx8MjaDQReI8IfEChSto","title":"昇詠建設股份有限公司","lat":"24.9698056","lng":"121.1978591","address":"桃園中壢區中大路170巷37號","city":"桃園"},
{"id":"23","place_id":"ChIJFY4vR8IjaDQRGaonznxxi9w","title":"四海遊龍-中央大學店","lat":"24.9704203","lng":"121.1957712","address":"桃園No, No. 300, 中大路, 中壢區","city":"桃園"},
{"id":"24","place_id":"ChIJrZ86R8IjaDQRESqz7QTU28g","title":"金盃美而美","lat":"24.9705102","lng":"121.1957796","address":"桃園中壢區中大路300號","city":"桃園"},
{"id":"25","place_id":"ChIJzVi3QMIjaDQR6XY-OGaz15o","title":"中央大學第九宿舍餐廳","lat":"24.9705215","lng":"121.1956981","address":"桃園中壢區中大路300號","city":"桃園"},
{"id":"26","place_id":"ChIJDyz9ksQjaDQRp-iaAeI2ekw","title":"百樂門音樂玩家協會","lat":"24.9716621","lng":"121.2008457","address":"桃園中壢區中正路1308-1號","city":"桃園"},
{"id":"27","place_id":"ChIJG8iK5cMjaDQRt-U116jEdEk","title":"百昌不動產股份有限公司","lat":"24.9690469","lng":"121.1986893","address":"桃園臺灣省桃園市中壢區中大路170巷19號","city":"桃園"},
{"id":"28","place_id":"ChIJYWIdaucjaDQRk-G7e3Hv2rQ","title":"財團法人中壢教會聚會所中央大學聚會所","lat":"24.9706476","lng":"121.1997104","address":"桃園中壢市五權里上三座屋3鄰36號之19","city":"桃園"},
{"id":"29","place_id":"ChIJZ4rK98MjaDQRaLTulu7lqaM","title":"福祿貝爾崇皓幼兒園-中大分校","lat":"24.9690005","lng":"121.1995861","address":"桃園中壢區中大路150巷125號","city":"桃園"},
{"id":"30","place_id":"ChIJUesa0PEjaDQRpVFgSSzZDLs","title":"中大路木棉花道","lat":"24.96823119999999","lng":"121.1984373","address":"桃園中壢區中大路","city":"桃園"},
{"id":"31","place_id":"ChIJU3yPDsQjaDQR7v6F2bKg8Fs","title":"曜園社區管理委員會","lat":"24.9689979","lng":"121.200176","address":"桃園中壢區中大路150巷27號","city":"桃園"},
{"id":"32","place_id":"ChIJmSyyZsEjaDQRmr5qIFFMEcw","title":"中央大學[樂活]","lat":"24.968168","lng":"121.197929","address":"桃園Taiwan","city":"桃園"},
{"id":"33","place_id":"ChIJ-18nacQjaDQRhlk26KjMAhk","title":"速安達電器宅配服務股份有限公司","lat":"24.969725","lng":"121.200806","address":"桃園中壢市五權里上三座屋5鄰48號之1","city":"桃園"},
{"id":"34","place_id":"ChIJ8ZPXVMEjaDQRQOWi3u2nS-o","title":"美正投資股份有限公司","lat":"24.9682042","lng":"121.1996344","address":"桃園中壢區中大路91號","city":"桃園"},
{"id":"35","place_id":"ChIJbZjzXsMjaDQR-D5hLruY6Q8","title":"吉昌車業有限公司","lat":"24.9723862","lng":"121.1994079","address":"桃園中壢區中正路1437-1號","city":"桃園"},
{"id":"36","place_id":"ChIJ3ZEExtwjaDQREr5AH0-Xm1U","title":"台灣中油惠暘站","lat":"24.9745212","lng":"121.197875","address":"桃園中壢區中正路二段38號","city":"桃園"},
{"id":"37","place_id":"ChIJ6VSb1NwjaDQRMy3RJr4FfUg","title":"高群企業股份有限公司","lat":"24.9741901","lng":"121.1971894","address":"桃園中壢區大享街45號","city":"桃園"},
{"id":"38","place_id":"ChIJ6cXEN9sjaDQR0Dnc0jroy5I","title":"乘新堡科技有限公司","lat":"24.97369","lng":"121.20115","address":"桃園中壢區中正路1274巷51號","city":"桃園"},
{"id":"39","place_id":"ChIJO2WINtsjaDQRIG6XOtmONrE","title":"鈺功有限公司","lat":"24.9734919","lng":"121.201294","address":"桃園中壢區中正路1274巷47號","city":"桃園"},
{"id":"40","place_id":"ChIJAcTJOdsjaDQR3kuRRANB2eQ","title":"元生實業","lat":"24.9737832","lng":"121.2012358","address":"桃園中壢區中正路1274巷58號","city":"桃園"},
{"id":"41","place_id":"ChIJYXFxM9sjaDQR0K0Garme4uo","title":"精鵬企業有限公司","lat":"24.9732144","lng":"121.2017214","address":"桃園No. 39號, 中正路·1274巷, 中壢區","city":"桃園"},
{"id":"42","place_id":"ChIJPbVlTsMjaDQRqJeV8ZpYTNk","title":"三座厝","lat":"24.973289","lng":"121.19881","address":"桃園Taiwan","city":"桃園"},
{"id":"43","place_id":"ChIJUUhVTsMjaDQRTrRBGZWnois","title":"詠隆國際企業","lat":"24.9731883","lng":"121.1987811","address":"桃園Taiwan","city":"桃園"},
{"id":"44","place_id":"ChIJQcjpTsMjaDQR7tvjtfdYMWI","title":"永新玻璃公司","lat":"24.973261","lng":"121.1986919","address":"桃園中壢區中正路1471之1號","city":"桃園"},
{"id":"45","place_id":"ChIJ1YGmFF4jaDQRxhAcw6jYYOs","title":"7-ELEVEN 鋒彩門市","lat":"24.9724369","lng":"121.1993518","address":"桃園中壢區中正路1439-1號","city":"桃園"},
{"id":"46","place_id":"ChIJcXiKTsMjaDQRT0IcYZ-NOzA","title":"三座厝","lat":"24.97326","lng":"121.198654","address":"桃園Taiwan","city":"桃園"},
{"id":"47","place_id":"ChIJTdgBTsMjaDQRcJxJCwUUWug","title":"八古文鬆餅臺北德芳美","lat":"24.9732988","lng":"121.1989544","address":"桃園中壢區中正路1462號","city":"桃園"},
{"id":"48","place_id":"ChIJN5GtWcMjaDQRFgqMED1DSQs","title":"好朋友烏醋麵","lat":"24.9727303","lng":"121.1994769","address":"桃園中壢區中正路1418號","city":"桃園"},
{"id":"49","place_id":"ChIJKbNKTMMjaDQRfi3YRtFleNM","title":"三座厝","lat":"24.97335199999999","lng":"121.198913","address":"桃園Taiwan","city":"桃園"},
{"id":"50","place_id":"ChIJI-AHSMMjaDQR0joKEkBWOXk","title":"竑維有限公司","lat":"24.97314","lng":"121.198284","address":"桃園中壢區中正路1471號","city":"桃園"},
{"id":"51","place_id":"ChIJyxe6TcMjaDQRVzSJkcp-fMY","title":"福德祠","lat":"24.973449","lng":"121.1988262","address":"桃園Taiwan","city":"桃園"},
{"id":"52","place_id":"ChIJqWzjd-kjaDQRMCzixK2VXjw","title":"桃竹苗區域教學資源中心","lat":"24.9701892","lng":"121.1929048","address":"桃園中壢區中大路300號","city":"桃園"},
{"id":"53","place_id":"ChIJJaOqGOojaDQRfQLUY0eV4hk","title":"中央松韻口琴社","lat":"24.969481","lng":"121.192516","address":"桃園中壢區中大路300號據德樓1F松韻口琴社","city":"桃園"},
{"id":"54","place_id":"ChIJT-DgUOojaDQRrWJW3SHNzEQ","title":"TibaMe（原資策會中壢中心）","lat":"24.967788","lng":"121.191635","address":"桃園中壢區中大路300號工程二館(資策會大樓","city":"桃園"},
{"id":"55","place_id":"ChIJN-Sd8ekjaDQRqsdSy50UiZs","title":"綜教館","lat":"24.9702227","lng":"121.1929365","address":"桃園中壢區中大路300號","city":"桃園"},
{"id":"56","place_id":"ChIJO1RnAusjaDQRgReMYuasp8Y","title":"YouBike 中央大學依仁堂","lat":"24.96711649999999","lng":"121.1909614","address":"桃園中壢區中大路300號松苑餐廳前方廣場","city":"桃園"},
{"id":"57","place_id":"ChIJRQFVHOsjaDQRS6FjucjLMbY","title":"彥辰國際有限公司","lat":"24.9667638","lng":"121.1908938","address":"桃園中壢區中大路300號","city":"桃園"},
{"id":"58","place_id":"ChIJVRg1jsEjaDQRVjpAHoAbipw","title":"國立中央大學依仁堂","lat":"24.9682669","lng":"121.1908966","address":"桃園中壢區中大路300號","city":"桃園"},
{"id":"59","place_id":"ChIJQxlwBOsjaDQRoWQG1Fzc7ek","title":"中央大學創新育成中心","lat":"24.9667439","lng":"121.1908473","address":"桃園中壢區中大路300號","city":"桃園"},
{"id":"60","place_id":"ChIJvTdZc-ojaDQRgCI6T4HGQqw","title":"中央大學諮商中心","lat":"24.9681836","lng":"121.1935708","address":"桃園中壢區中央路239巷1號","city":"桃園"},
{"id":"61","place_id":"ChIJ_ToZ4MEjaDQRzW4bh--VCHE","title":"國立中央大學中正圖書館","lat":"24.9681818","lng":"121.1936824","address":"桃園號, No. 300, 中大路, 中壢區","city":"桃園"},
{"id":"62","place_id":"ChIJz0H0dOojaDQRtGkMzb-Jei0","title":"國立中央大學圖書館視聽資料室","lat":"24.9680647","lng":"121.1936925","address":"桃園號, No. 300, 中大路, 中壢區","city":"桃園"},
{"id":"63","place_id":"ChIJHyS2BuojaDQRvpp5JdTnfRM","title":"中央大學太極銅雕","lat":"24.9691893","lng":"121.1936751","address":"桃園桃園區","city":"桃園"},
{"id":"64","place_id":"ChIJN14WOJIjaDQRBIdziAvWRH8","title":"悅盟先進化學股份有限公司","lat":"24.9676886","lng":"121.1929975","address":"桃園中壢區中大路300號E333室工程一館","city":"桃園"},
{"id":"65","place_id":"ChIJ47GSzuojaDQRe-caIy9hlpk","title":"中央大學附幼","lat":"24.9660006","lng":"121.1918899","address":"桃園中壢區中大新村26號","city":"桃園"},
{"id":"66","place_id":"ChIJtR343ZQjaDQRDpfJB6j1FDw","title":"Sidewalk人行道蔬食-中大店","lat":"24.9643716","lng":"121.192378","address":"桃園中壢區中央路216巷39號","city":"桃園"},
{"id":"67","place_id":"ChIJBfgJJusjaDQRgui-0Z46p6Y","title":"中央大學後門機車停車場","lat":"24.9655299","lng":"121.190759","address":"桃園平鎮區中央路185號","city":"桃園"},
{"id":"68","place_id":"ChIJLVL4K-sjaDQRU46iaQCVwNA","title":"清心福全中央店-珍珠奶茶手搖飲料專賣店","lat":"24.9651453","lng":"121.190901","address":"桃園平鎮區中央路171號","city":"桃園"},
{"id":"69","place_id":"ChIJYe70D0kiaDQRzRseJvpm0zE","title":"八方雲集中壢中央店","lat":"24.964684","lng":"121.1908871","address":"桃園中壢區中央路226之1號","city":"桃園"},
{"id":"70","place_id":"ChIJN8qm1ZQjaDQRK2sR2uiOwXM","title":"國泰世華銀行ATM(全家超商-中壢龍凱店","lat":"24.964676","lng":"121.190969","address":"桃園中壢區中央路218號號1樓","city":"桃園"},
{"id":"71","place_id":"ChIJncsOM5UjaDQRaDYr_GmaDTA","title":"迷路","lat":"24.9645958","lng":"121.190714","address":"桃園平鎮區中央路151號","city":"桃園"},
{"id":"72","place_id":"ChIJE71NKpUjaDQRYxJcpmvGDl0","title":"Backdoor Café\/中壢美食\/中","lat":"24.964553","lng":"121.1912544","address":"桃園中壢區中央路216巷9號","city":"桃園"},
{"id":"73","place_id":"ChIJzYeKKZUjaDQRA4mtlpIXAPs","title":"街角216","lat":"24.96448999999999","lng":"121.1910724","address":"桃園中壢區中央路216巷6號","city":"桃園"},
{"id":"74","place_id":"ChIJ75lSZOsjaDQR-qbmkb8atyo","title":"中央大學機械系","lat":"24.9676739","lng":"121.1885331","address":"桃園中壢區中大路300號","city":"桃園"},
{"id":"75","place_id":"ChIJA40KLOsjaDQRFItiVwv0k_g","title":"7-ELEVEN 學央門市","lat":"24.9654829","lng":"121.1910034","address":"桃園平鎮區中央路187號","city":"桃園"},
{"id":"76","place_id":"ChIJ8QNmG-sjaDQRCwvCMDf0kyw","title":"風起科技","lat":"24.9668163","lng":"121.1906806","address":"桃園平鎮區雙連里","city":"桃園"},
{"id":"77","place_id":"ChIJDXjgHOsjaDQRPXp80bzOvQU","title":"松果館 （國際事務處）","lat":"24.966786","lng":"121.1908943","address":"桃園平鎮區雙連里","city":"桃園"},
{"id":"78","place_id":"ChIJs3pDHesjaDQRNmvodsPETz8","title":"中央大學國際事務處","lat":"24.9667733","lng":"121.1910288","address":"桃園平鎮區雙連里","city":"桃園"},
{"id":"79","place_id":"ChIJR7Yh3JQjaDQRmpIm-Qd6sQ0","title":"馬爾波咖啡\/義大利麵\/手工Pizza","lat":"24.9638422","lng":"121.1907758","address":"桃園中壢區中央路178號","city":"桃園"},
{"id":"80","place_id":"ChIJj6touqwjaDQRmbJitpDdpt0","title":"名廬學舍","lat":"24.9637814","lng":"121.1905533","address":"桃園平鎮區中央路115號","city":"桃園"},
{"id":"81","place_id":"ChIJhXqM9ZQjaDQRy9hljmhGs30","title":"賀田農業科技股份有限公司","lat":"24.962467","lng":"121.189905","address":"桃園平鎮區中央路65號","city":"桃園"},
{"id":"82","place_id":"ChIJ69AtOZQjaDQR7QggsOY-x18","title":"桃園市召會10會所","lat":"24.9635306","lng":"121.1911486","address":"桃園中壢區中央路168巷9號","city":"桃園"},
{"id":"83","place_id":"ChIJfSkksOojaDQRHR34pA7TDIg","title":"來客","lat":"24.9648947","lng":"121.1932508","address":"桃園中壢區五興路331巷28-2號","city":"桃園"},
{"id":"84","place_id":"ChIJ8f9WLJUjaDQRTIflRDV2l60","title":"田園美食屋","lat":"24.9640919","lng":"121.1904495","address":"桃園中壢區中央路131號","city":"桃園"},
{"id":"85","place_id":"ChIJXW_V4ZQjaDQRnwGq0K2POFk","title":"鑫紅樓","lat":"24.9633231","lng":"121.1913262","address":"桃園中壢區中央路168巷17號","city":"桃園"},
{"id":"86","place_id":"ChIJq3lm5ZQjaDQRJ0FGetG4-Os","title":"土地公(圓湖伯公)","lat":"24.9630891","lng":"121.190447","address":"桃園中壢區中央路93-99號","city":"桃園"},
{"id":"87","place_id":"ChIJw0kP3ZQjaDQRrFFNOWLWr4s","title":"迪克有限公司","lat":"24.9636968","lng":"121.1905262","address":"桃園平鎮區中央路115號","city":"桃園"},
{"id":"88","place_id":"ChIJAxQLF5QjaDQRsOmtnUQ3mW0","title":"豬哥香雞排","lat":"24.960421","lng":"121.1894245","address":"桃園平鎮區民族路雙連一段22號","city":"桃園"},
{"id":"89","place_id":"ChIJRQrmr7kfaDQRPd90EJidYrg","title":"中國信託商業銀行ATM 統一學屋","lat":"24.960475","lng":"121.1901089","address":"桃園中壢區民族路三段402號","city":"桃園"},
{"id":"90","place_id":"ChIJaXDa_5MjaDQRuD_FuMbnM7c","title":"日通專業快遞","lat":"24.9602339","lng":"121.188087","address":"桃園平鎮區民族路雙連一段126號","city":"桃園"},
{"id":"91","place_id":"ChIJNUMj_pMjaDQRLLwupaou0BI","title":"駿朋環保有限公司","lat":"24.96027","lng":"121.18797","address":"桃園平鎮區民族路雙連一段126號","city":"桃園"},
{"id":"92","place_id":"ChIJT3f2WZEjaDQRS9exsIxv09Y","title":"薪葉普洱茶","lat":"24.9600949","lng":"121.1879262","address":"桃園平鎮區民族路雙連一段95號","city":"桃園"},
{"id":"93","place_id":"ChIJHa-sJJQjaDQR_nlTvUAB8Nw","title":"雙連坡","lat":"24.96041799999999","lng":"121.1900325","address":"桃園Taiwan","city":"桃園"},
{"id":"94","place_id":"ChIJHTNVZJQjaDQRe7m23_1PNjQ","title":"玄御奇企業有限公司","lat":"24.9621275","lng":"121.1891212","address":"桃園臺灣省桃園市平鎮區中央路51巷25號","city":"桃園"},
{"id":"95","place_id":"ChIJS-tEZJQjaDQRraQQdSjLI8Y","title":"加立針織股份有限公司","lat":"24.96217399999999","lng":"121.189165","address":"桃園平鎮區中央路51巷23號","city":"桃園"},
{"id":"96","place_id":"ChIJH9q0fbUjaDQRZGv0Y36mZ4I","title":"FarmerKing汎瑪植物工廠","lat":"24.962405","lng":"121.190016","address":"桃園平鎮區中央路","city":"桃園"},
{"id":"97","place_id":"ChIJ8a3xWJQjaDQRMnCFJrcrEDE","title":"廖德助","lat":"24.962274","lng":"121.190151","address":"桃園中壢區中央路53號","city":"桃園"},
{"id":"98","place_id":"ChIJC85fpk8jaDQRlz_O3YkLXRQ","title":"十二籃‧選 桃園總店","lat":"24.9623405","lng":"121.1901329","address":"桃園平鎮區中央路65號","city":"桃園"},
{"id":"99","place_id":"ChIJv9mKDqwjaDQRzsSYd1gLaLw","title":"桃園市天堂敬拜教會","lat":"24.962332","lng":"121.1901796","address":"桃園平鎮區中央路65號","city":"桃園"},
{"id":"100","place_id":"ChIJZVG4ugAjaDQR-LLdLGRE1qg","title":"大學之星","lat":"24.9612269","lng":"121.1900128","address":"桃園平鎮區中央路23號","city":"桃園"},
{"id":"101","place_id":"ChIJDyKrND8jaDQRfH-cgbJs65U","title":"稻穀設計","lat":"24.9629333","lng":"121.1902062","address":"桃園平鎮區中央路89號","city":"桃園"},
{"id":"102","place_id":"ChIJjWbo9pQjaDQR33EWDHUpCSM","title":"豐駿富興業有限公司","lat":"24.962631","lng":"121.190138","address":"桃園平鎮區中央路75號","city":"桃園"},
{"id":"103","place_id":"ChIJo6KGiJMjaDQRGQwhK1fb9l8","title":"合民企業有限公司","lat":"24.9621333","lng":"121.1879281","address":"桃園平鎮區雙福路一段82號","city":"桃園"},
{"id":"104","place_id":"ChIJo6KGiJMjaDQRPaRQ-Sr4AFo","title":"保其鋼鐵有限公司","lat":"24.9621333","lng":"121.1879281","address":"桃園平鎮區雙福路一段82號","city":"桃園"},
{"id":"105","place_id":"ChIJScrknZMjaDQRZ3h-PQiQe5Q","title":"立益紡織","lat":"24.9630343","lng":"121.1871737","address":"桃園65 號, 雙福路一段, 平鎮區","city":"桃園"},
{"id":"106","place_id":"ChIJ_7WPjpMjaDQRfniT2CRcDxg","title":"台灣大昌華嘉供應鏈服務股份有限公司","lat":"24.9620033","lng":"121.1877211","address":"桃園臺灣省桃園市平鎮區雙福路一段92號","city":"桃園"},
{"id":"107","place_id":"ChIJScrknZMjaDQR_CsgC-rQDNE","title":"源興冷凍庫","lat":"24.9620033","lng":"121.1877211","address":"桃園平鎮區雙福路一段160號","city":"桃園"},
{"id":"108","place_id":"ChIJR_UL-pQjaDQR7521zTqSdXw","title":"換拉鍊修改衣褲","lat":"24.9627548","lng":"121.1905865","address":"桃園中壢區中央路122號","city":"桃園"},
{"id":"109","place_id":"ChIJbyDkruojaDQRxl33DHAMPBk","title":"TKB數位學堂(平鎮館)","lat":"24.964749","lng":"121.193475","address":"桃園中壢區五興路329號","city":"桃園"},
{"id":"110","place_id":"ChIJH_YfouojaDQR3ABiJTWn_lU","title":"無敵蛋餅","lat":"24.9653599","lng":"121.1935715","address":"桃園中壢區五興路347號","city":"桃園"},
{"id":"111","place_id":"ChIJT9tlm8wjaDQR4Nq5WdH29sM","title":"皇展國際有限公司","lat":"24.964529","lng":"121.18934","address":"桃園平鎮區中央路149巷26-8號","city":"桃園"},
{"id":"112","place_id":"ChIJUe7kupQjaDQRFT1rXdd-igQ","title":"鉅大撞球場","lat":"24.9644959","lng":"121.189061","address":"桃園平鎮區中央路149巷26-1號","city":"桃園"},
{"id":"113","place_id":"ChIJ4dNMFcIjaDQRgB_vmQwrtWM","title":"中央大學烏龜池","lat":"24.9704969","lng":"121.1953189","address":"桃園26、320, 中壢區","city":"桃園"},
{"id":"114","place_id":"ChIJqan5ZcIjaDQRz1oOn0al6YU","title":"中央大學男十二舍","lat":"24.9712527","lng":"121.1949844","address":"桃園桃園區","city":"桃園"},
{"id":"115","place_id":"ChIJyWBSacIjaDQRETrR5blXySY","title":"中大會館","lat":"24.9707907","lng":"121.1949416","address":"桃園中壢區中大路300號2鄰","city":"桃園"},
{"id":"116","place_id":"ChIJG1oMl98jaDQRIlRWrA9BMxY","title":"中大 iiCafe","lat":"24.9706239","lng":"121.1944023","address":"桃園中壢區中大路300號中央大學男研舍","city":"桃園"},
{"id":"117","place_id":"ChIJx9pRc8IjaDQRg3IIuSMW1HM","title":"Male Dormitory","lat":"24.9706878","lng":"121.1943452","address":"桃園中壢區五權里","city":"桃園"},
{"id":"118","place_id":"ChIJfUySD8IjaDQRVR6gd2ehCZk","title":"國鼎圖書資料館","lat":"24.97006129999999","lng":"121.194556","address":"桃園中壢區","city":"桃園"},
{"id":"119","place_id":"ChIJBymdC8IjaDQRXl4g8LNX4U0","title":"郵局ATM","lat":"24.9705685","lng":"121.1942561","address":"桃園中壢區五權里","city":"桃園"},
{"id":"120","place_id":"ChIJVZjLj8EjaDQRgD0AW-ryNeQ","title":"Cajuii最專業的工業產品搜尋平台","lat":"24.9684297","lng":"121.1959266","address":"桃園中壢區中大路300號 育成中心323室","city":"桃園"},
{"id":"121","place_id":"ChIJ6xk1jsEjaDQRDCX-POqwvCk","title":"睿光照明有限公司","lat":"24.9684297","lng":"121.1959266","address":"桃園中壢區中大路300號","city":"桃園"},
{"id":"122","place_id":"ChIJ6xk1jsEjaDQRTTsdBl1QIyI","title":"中國地球物理學會","lat":"24.9684297","lng":"121.1959266","address":"桃園中壢區中大路300號","city":"桃園"},
{"id":"123","place_id":"ChIJ6xk1jsEjaDQRXj9zKtutt14","title":"數碼智庫股份有限公司","lat":"24.9684297","lng":"121.1959266","address":"桃園中壢區中大路300號","city":"桃園"},
{"id":"124","place_id":"ChIJVRg1jsEjaDQRJfpjGk02tFI","title":"電動機車充電站(中央大學)","lat":"24.968442","lng":"121.195907","address":"桃園中壢區中大路300號","city":"桃園"},
{"id":"125","place_id":"ChIJTZ8fK_IjaDQRp4M4wQA5v4c","title":"金粟科技工程顧問有限公司","lat":"24.96842","lng":"121.1956658","address":"桃園中壢區中大路300號#國鼎圖書館","city":"桃園"},
{"id":"126","place_id":"ChIJxawQL-sjaDQRy_lBNIn1kwg","title":"拉亞漢堡 中央大學校內店","lat":"24.9655823","lng":"121.1944353","address":"桃園女14舍B1, No. 300號, 中大路, 中壢區","city":"桃園"},
{"id":"127","place_id":"ChIJKZ9AejsiaDQRvntFqpA5KNA","title":"誠和 證件快照機 水啦!","lat":"24.96570579999999","lng":"121.1944778","address":"桃園中壢區中大路300號","city":"桃園"},
{"id":"128","place_id":"ChIJberyuY_VDRQR6yvNEkBxFC4","title":"中央大學郵局","lat":"24.96569049999999","lng":"121.1945518","address":"桃園中壢區中大路300號(中央大學女14舍1樓)","city":"桃園"},
{"id":"129","place_id":"ChIJnyNaI8AjaDQRkxyXm8OiuOE","title":"中央大學郵局ATM","lat":"24.9656437","lng":"121.1946089","address":"桃園中壢區中大路300號","city":"桃園"},
{"id":"130","place_id":"ChIJ6wjNO8AjaDQRNg4THswJdPc","title":"印象剪燙","lat":"24.9657203","lng":"121.1950014","address":"桃園中壢區中大路300號男 11 舍 地下 1 樓","city":"桃園"},
{"id":"131","place_id":"ChIJST6hoOojaDQRn6LjKhiYps4","title":"OK便利商店 中壢雙連店","lat":"24.9652657","lng":"121.1936694","address":"桃園中壢區五興路402號","city":"桃園"},
{"id":"132","place_id":"ChIJnUI4oeojaDQRY37ysn6w5xo","title":"聯邦銀行ATM-OK中壢雙連店","lat":"24.96527489999999","lng":"121.1936822","address":"桃園中壢區五興路402號","city":"桃園"},
{"id":"133","place_id":"ChIJgVgjpuojaDQR6hK-UQrtcQE","title":"霸王香雞排","lat":"24.9649778","lng":"121.1936872","address":"桃園中壢區五興路390號","city":"桃園"},
{"id":"134","place_id":"ChIJ6xk1jsEjaDQRFohCbAZTKKI","title":"敦煌書局 中央營業所","lat":"24.965643","lng":"121.194986","address":"桃園中壢區中大路300號","city":"桃園"},
{"id":"135","place_id":"ChIJk-HnHZUjaDQRm_0Qn13X__Q","title":"Daddys美式餐廳","lat":"24.9637413","lng":"121.1907578","address":"桃園中壢區中央路170號","city":"桃園"},
{"id":"136","place_id":"ChIJV6DxucEjaDQR7GJg2q_P-xg","title":"校史館","lat":"24.9671844","lng":"121.1957362","address":"桃園中壢區中大路300號","city":"桃園"},
{"id":"137","place_id":"ChIJO1_O8MEjaDQRf_11YhoE55c","title":"中央大學崑曲博物館","lat":"24.9689328","lng":"121.1947842","address":"桃園中壢區中大路300號文學二館","city":"桃園"},
{"id":"138","place_id":"ChIJ-Q1F-sEjaDQRjVX0QHDslLk","title":"國立中央大學文學二館","lat":"24.9689012","lng":"121.1945334","address":"桃園中壢區中大路300號","city":"桃園"},
{"id":"139","place_id":"ChIJCSM1-sEjaDQRssU33O24al8","title":"文學院","lat":"24.9689299","lng":"121.1945937","address":"桃園中壢區","city":"桃園"},
{"id":"140","place_id":"ChIJx3da5sEjaDQRa8hsUBNH0Cs","title":"國立中央大學總圖書館","lat":"24.9682827","lng":"121.194434","address":"桃園中壢區中大路300號","city":"桃園"},
{"id":"141","place_id":"ChIJk-3-9oYjaDQRZBm7vsEinS0","title":"哲學沙龍","lat":"24.9692521","lng":"121.1943338","address":"桃園中壢區文學一館A111","city":"桃園"},
{"id":"142","place_id":"ChIJBZ2ZAsIjaDQRToENMrWBkRc","title":"國立中央大學文學一館","lat":"24.9693778","lng":"121.1945522","address":"桃園中壢區中大路300號","city":"桃園"},
{"id":"143","place_id":"ChIJXThOmOwjaDQR7CjnuxxEP5E","title":"國立中央大學網路學習科技研究所","lat":"24.9670982","lng":"121.1876321","address":"桃園中壢區中大路300號","city":"桃園"},
{"id":"144","place_id":"ChIJ5e69vuwjaDQREc_hLLxNcyI","title":"中大材料所","lat":"24.96683459999999","lng":"121.1870817","address":"桃園中壢區中大路300號","city":"桃園"},
{"id":"145","place_id":"ChIJh9Cl9OwjaDQRieiWg6Eaq3A","title":"中壢特高頻雷達站","lat":"24.9682234","lng":"121.1867225","address":"桃園中壢區中大路300號","city":"桃園"},
{"id":"146","place_id":"ChIJZ0FtnewjaDQRNfdqsDr5yfE","title":"中央大學工程五館","lat":"24.9671517","lng":"121.1877112","address":"桃園中壢區中大路300號","city":"桃園"},
{"id":"147","place_id":"ChIJ3VETo-sjaDQRl-KHmbEn_gI","title":"國立中央大學田徑場","lat":"24.968319","lng":"121.189917","address":"桃園中壢區中大路300號","city":"桃園"},
{"id":"148","place_id":"ChIJc4OtyQMjaDQRa5mSLomo_JU","title":"中央大學白色能源屋","lat":"24.9675935","lng":"121.1893121","address":"桃園中壢區中大路300號機械系工程三館旁","city":"桃園"},
{"id":"149","place_id":"ChIJd1YEmewjaDQRviXvTqKtLOs","title":"Network Learning Tec","lat":"24.9671368","lng":"121.1877151","address":"桃園平鎮區","city":"桃園"},
{"id":"150","place_id":"ChIJW7OcWuojaDQRxgltiziFx7U","title":"行動開發學院","lat":"24.9671517","lng":"121.1877072","address":"桃園平鎮區工程五館國立中央大學","city":"桃園"},
{"id":"151","place_id":"ChIJoYeQgewjaDQRlsAH7qfRphs","title":"工程三館(E4)","lat":"24.9679043","lng":"121.1880868","address":"桃園桃園區","city":"桃園"},
{"id":"152","place_id":"ChIJ4XrQWesjaDQRTjRtmk9DnEM","title":"順成油行有限公司","lat":"24.9661237","lng":"121.1884123","address":"桃園平鎮區中央路239巷1號","city":"桃園"},
{"id":"153","place_id":"ChIJE2e0newjaDQRrzyxkTK24rc","title":"國立中央大學資訊工程學系","lat":"24.9668966","lng":"121.1875893","address":"桃園中壢區中大路300號","city":"桃園"},
{"id":"154","place_id":"ChIJXTcHqOwjaDQR7rBTa5D3Msg","title":"大學至善園","lat":"24.9661588","lng":"121.1881938","address":"桃園平鎮區中央路239巷","city":"桃園"},
{"id":"155","place_id":"ChIJRfJcpOwjaDQRAwqa1ZnwFus","title":"前瞻科技研究中心","lat":"24.9664952","lng":"121.1877447","address":"桃園中壢區中大路300號(工程五館C棟)","city":"桃園"},
{"id":"156","place_id":"ChIJ268VHu0jaDQRYGZgoE-xh74","title":"中央大學氣象觀測站","lat":"24.9677623","lng":"121.1852801","address":"桃園平鎮區324","city":"桃園"},
{"id":"157","place_id":"ChIJST_xcOwjaDQRkxCsqVS4zA8","title":"國立中央大學機車停車場(大力館旁)","lat":"24.9690463","lng":"121.1877087","address":"桃園桃園區","city":"桃園"},
{"id":"158","place_id":"ChIJX6lfAecjaDQRxZrfwiSMDJ4","title":"國立中央大學工程四館","lat":"24.9683592","lng":"121.187651","address":"桃園平鎮區","city":"桃園"},
{"id":"159","place_id":"ChIJzSGExhUjaDQRdqHvwyTKN7s","title":"プール","lat":"24.969876","lng":"121.187613","address":"桃園一鄰, No. 30號, Section 1, Yuemei Road, Zhongli District","city":"桃園"},
{"id":"160","place_id":"ChIJS-SViOsjaDQROoUv8k6WN6U","title":"大型力學實驗室","lat":"24.9688217","lng":"121.1884835","address":"桃園中壢區","city":"桃園"},
{"id":"161","place_id":"ChIJm4JxZcIjaDQRRAQkYD3dBUQ","title":"中央大學太空及遙測研究中心","lat":"24.9677677","lng":"121.1870383","address":"桃園中壢區五權里2鄰中大路300號","city":"桃園"},
{"id":"162","place_id":"ChIJrcPT-ewjaDQRfYizXohW3A8","title":"玄盛發農場","lat":"24.9684743","lng":"121.1860428","address":"桃園中壢區大享街一段236號","city":"桃園"},
{"id":"163","place_id":"ChIJ-SLOO-wjaDQRV3WiWyQf9p8","title":"國立中央大學學人宿舍北村E棟","lat":"24.970309","lng":"121.186279","address":"桃園桃園市中壢區大享街一段186巷63號","city":"桃園"},
{"id":"164","place_id":"ChIJ6xk1jsEjaDQRVa0hwImDoNs","title":"國立中央大學攀岩塔","lat":"24.9689734","lng":"121.1894286","address":"桃園中壢區中大路300號","city":"桃園"},
{"id":"165","place_id":"ChIJK11gl-wjaDQRQ4FHLOKZ3OM","title":"Fungo","lat":"24.9672354","lng":"121.1874946","address":"桃園中壢區中央路255號","city":"桃園"},
{"id":"166","place_id":"ChIJQSaJ5ewjaDQRORtlaWPelHE","title":"游離層天線區","lat":"24.9677717","lng":"121.1860523","address":"桃園平鎮區大享街一段","city":"桃園"},
{"id":"167","place_id":"ChIJ0yaXbeojaDQR5kPzPmOaZwA","title":"中央大學客家學院","lat":"24.9709789","lng":"121.1903653","address":"桃園中壢區中央路239巷1號號","city":"桃園"},
{"id":"168","place_id":"ChIJ10sxzcIjaDQROcSXNjKF3kw","title":"中大隨筆","lat":"24.97186739999999","lng":"121.1902768","address":"桃園中壢區大享街","city":"桃園"},
{"id":"169","place_id":"ChIJ3_01lukjaDQRXsTmNfe4ziU","title":"中央大學物理學系","lat":"24.9711857","lng":"121.1919986","address":"桃園中壢區中大路300號","city":"桃園"},
{"id":"170","place_id":"ChIJqSfLv-kjaDQR-xuQ_5AVNwA","title":"中央大學科學教育中心","lat":"24.971261","lng":"121.192338","address":"桃園國立中央大學 科學教育中心, No. 300號, 中大路, 中壢區","city":"桃園"},
{"id":"171","place_id":"ChIJQzL8em0jaDQRuUEltvutl2Y","title":"Nature Fun植物染","lat":"24.971143","lng":"121.1903937","address":"桃園中壢區Unnamed Road","city":"桃園"},
{"id":"172","place_id":"ChIJ4Uzkb-kjaDQR56MaBcO48Ds","title":"CAMRDA 高等模式研發應用中心","lat":"24.9709204","lng":"121.1902415","address":"桃園中壢區中大路300號中央大學客家學院大樓318室H318 室","city":"桃園"},
{"id":"173","place_id":"ChIJ9zLptsYjaDQR--nedVLiczM","title":"四隅位室內設計","lat":"24.9710605","lng":"121.1897975","address":"桃園中壢區大享街470號1樓","city":"桃園"},
{"id":"174","place_id":"ChIJb1-s_bcjaDQRY5w3yKxdf7s","title":"中大雲鼎社區管理委員會","lat":"24.971633","lng":"121.190157","address":"桃園中壢區大享街472-476號","city":"桃園"},
{"id":"175","place_id":"ChIJ1xljfekjaDQRV_E-RAlSW-c","title":"國立中央大學國鼎光電大樓","lat":"24.9702993","lng":"121.190494","address":"桃園中壢區320桃園市中壢區中大路300號","city":"桃園"},
{"id":"176","place_id":"ChIJq6qqqsEjaDQRHL1g_8QsV8c","title":"國立中央大學光電中心","lat":"24.9702811","lng":"121.1904856","address":"桃園中壢區中大路300號","city":"桃園"},
{"id":"177","place_id":"ChIJnzprnOkjaDQRXG84p3Qn2uY","title":"中大湖","lat":"24.9709962","lng":"121.1913647","address":"桃園中壢區中 大湖","city":"桃園"},
{"id":"178","place_id":"ChIJc3CxhOkjaDQRqUXluD7RjaQ","title":"中大松柏亭","lat":"24.970695","lng":"121.1914982","address":"桃園中壢區中大路","city":"桃園"},
{"id":"179","place_id":"ChIJ_w86P-kjaDQRUFVHqoDByBI","title":"宜祿營造有限公司","lat":"24.97198999999999","lng":"121.18934","address":"桃園中壢市大享街550號","city":"桃園"},
{"id":"180","place_id":"ChIJVZ5RF-kjaDQRSXytoFjtPyc","title":"中華電器五金建材行","lat":"24.972368","lng":"121.1899811","address":"桃園中壢區13","city":"桃園"},
{"id":"181","place_id":"ChIJE8v60esjaDQRmRxHR_OI38U","title":"中央大學籃球場","lat":"24.9696138","lng":"121.1906798","address":"桃園平鎮區","city":"桃園"},
{"id":"182","place_id":"ChIJaX9EAekjaDQR6CUAvRi_Zp4","title":"伯爵山莊","lat":"24.972609","lng":"121.190781","address":"桃園桃園市中壢區內厝里三友新村1之2號","city":"桃園"},
{"id":"183","place_id":"ChIJ46Hz8DEjaDQRkHhQI64ZDg0","title":"三友新村","lat":"24.972763","lng":"121.19052","address":"桃園中壢區三友新村","city":"桃園"},
{"id":"184","place_id":"ChIJ07fd--gjaDQRd3bWyBLCFVo","title":"中大逸墅","lat":"24.973323","lng":"121.190696","address":"桃園桃園市中壢區內厝里三友新村6號","city":"桃園"},
{"id":"185","place_id":"ChIJg0tfvOkjaDQRdGRj9AvcAt4","title":"中央大學科四館","lat":"24.97150079999999","lng":"121.191981","address":"桃園號, No. 300, 中大路, 中壢區","city":"桃園"},
{"id":"186","place_id":"ChIJryz-dNgjaDQRAcahPuLg7qA","title":"水悅莊園","lat":"24.9725685","lng":"121.1918626","address":"桃園中壢區大享街218號","city":"桃園"},
{"id":"187","place_id":"ChIJhZbxs-kjaDQRBdJLo7HGLjc","title":"台灣上村股份有限公司","lat":"24.972295","lng":"121.192118","address":"桃園中壢區大享街215巷8號","city":"桃園"},
{"id":"188","place_id":"ChIJG6oLtOkjaDQRFP1yQLAAEEo","title":"豪仕登堡","lat":"24.972298","lng":"121.192168","address":"桃園中壢區大享街215巷6號","city":"桃園"},
{"id":"189","place_id":"ChIJgV4ZlukjaDQR9-23CP_YI-U","title":"國立中央大學科學四館","lat":"24.9712217","lng":"121.1920871","address":"桃園中壢區大享街215巷68號號","city":"桃園"},
{"id":"190","place_id":"ChIJ-Z3BxukjaDQReJo3GDOkl1k","title":"認知神經科學研究所","lat":"24.9714954","lng":"121.1927636","address":"桃園中壢區","city":"桃園"},
{"id":"191","place_id":"ChIJrZbQw-kjaDQRoZ06jn35L6I","title":"國立中央大學科學五館","lat":"24.9714269","lng":"121.192678","address":"桃園號, No. 70, 大享街215巷, 中壢區","city":"桃園"},
{"id":"192","place_id":"ChIJpUszu8IjaDQRCfQxao3mxLY","title":"裕乘股份有限公司","lat":"24.9738096","lng":"121.1949252","address":"桃園中壢區大享街96號","city":"桃園"},
{"id":"193","place_id":"ChIJP7n8yMIjaDQRdAACQ4oUpUE","title":"新轉角手作料理","lat":"24.9738588","lng":"121.1956068","address":"桃園中壢區大享街69號","city":"桃園"},
{"id":"194","place_id":"ChIJtZJb3ukjaDQRyswPPjdKevc","title":"國立中央大學尤努斯社會企業中心","lat":"24.971013","lng":"121.193702","address":"桃園中壢區中大路300號管理二館611辦公室","city":"桃園"},
{"id":"195","place_id":"ChIJ0QdF3ukjaDQRKepI2WG9cXo","title":"中央大學管理二館","lat":"24.9709866","lng":"121.1937128","address":"桃園中壢區中大路300號","city":"桃園"},
{"id":"196","place_id":"ChIJQ6YsdcIjaDQRht-C_S-7l7Q","title":"男研舍","lat":"24.9707932","lng":"121.1940887","address":"桃園中壢區中大路300號","city":"桃園"},
{"id":"197","place_id":"ChIJIQLGBVUjaDQRLO6M5SGll0g","title":"國立中央大學尤努斯社會企業中心","lat":"24.9708734","lng":"121.1935797","address":"桃園中壢區中大路300號管理學院二館611室","city":"桃園"},
{"id":"198","place_id":"ChIJK7C3nU0jaDQRzXMO6bteJNA","title":"台灣丸七釣具店 星凱貿易有限公司","lat":"24.9738711","lng":"121.195675","address":"桃園中壢區大享街69-1號","city":"桃園"},
{"id":"199","place_id":"ChIJ1blXOcMjaDQRs7EOO7LrbSs","title":"鎧鉅實業股份有限公司","lat":"24.9729284","lng":"121.1978878","address":"桃園Taiwan","city":"桃園"},
{"id":"200","place_id":"ChIJt2n1u7cjaDQRBXC5jfiNqS0","title":"開程燈飾有限公司","lat":"24.9741901","lng":"121.1971894","address":"桃園中壢區大享街45-1號","city":"桃園"},
{"id":"201","place_id":"ChIJFS-509wjaDQRpGOwVKxO6tM","title":"武德堂國術館","lat":"24.9742203","lng":"121.1972776","address":"桃園中壢區大享街15號之1號","city":"桃園"},
{"id":"202","place_id":"ChIJH87ES8MjaDQR1-47pLfAjdI","title":"米蘭運通精品傢俱","lat":"24.97348999999999","lng":"121.198581","address":"桃園中壢區中正路1475號","city":"桃園"},
{"id":"203","place_id":"ChIJ-aJ3y9wjaDQREKypF6x9CrA","title":"宏銓汽車","lat":"24.9740393","lng":"121.1979324","address":"桃園Taiwan","city":"桃園"},
{"id":"204","place_id":"ChIJS34KzNwjaDQRPHTvBC4hDiw","title":"高速亮車體美容","lat":"24.9741536","lng":"121.1978807","address":"桃園中壢區","city":"桃園"},
{"id":"205","place_id":"ChIJ94CjTMMjaDQRgefVxWQHKvc","title":"阿彬師","lat":"24.9736571","lng":"121.19863","address":"桃園Taiwan","city":"桃園"},
{"id":"206","place_id":"ChIJ153C8MQjaDQRrjlmoz1oags","title":"7-ELEVEN 大享門市","lat":"24.9707674","lng":"121.2016765","address":"桃園中壢區中正路1262號","city":"桃園"},
{"id":"207","place_id":"ChIJZ915qB4jaDQRtfrceECoQBg","title":"祐榮","lat":"24.97236029999999","lng":"121.1997122","address":"桃園中壢區中正路1434號","city":"桃園"},
{"id":"208","place_id":"ChIJHciRl8QjaDQR7o8eRm0dtNY","title":"油飯","lat":"24.97185949999999","lng":"121.2004368","address":"桃園中壢區112縣道1346-1410號","city":"桃園"},
{"id":"209","place_id":"ChIJmYu398QjaDQRCMo0RRSVrH4","title":"中大配電變電所","lat":"24.971901","lng":"121.2005829","address":"桃園中壢區中正路1312號","city":"桃園"},
{"id":"210","place_id":"ChIJE4RkqcQjaDQROV4U1yR6ylc","title":"桃園魚市場","lat":"24.9728788","lng":"121.1998107","address":"桃園號, No. 1422, 中正路, 中壢區","city":"桃園"},
{"id":"211","place_id":"ChIJEdDvqMQjaDQR7FJHSgY-fxY","title":"立全鋼品有限公司","lat":"24.972878","lng":"121.199897","address":"桃園中壢區中正路1420號","city":"桃園"},
{"id":"212","place_id":"ChIJXe_4qMQjaDQR3wwAAySwv3s","title":"新中興鐵材行","lat":"24.972909","lng":"121.199858","address":"桃園中壢區中正路1422號","city":"桃園"},
{"id":"213","place_id":"ChIJP_K1PMQjaDQR7uMD6jaw2cY","title":"友竹居茶藝館","lat":"24.9684296","lng":"121.2014312","address":"桃園中壢區中大路32號","city":"桃園"},
{"id":"214","place_id":"ChIJLbCtU8QjaDQRHYti7CCcDzk","title":"中大室內裝潢行","lat":"24.96972","lng":"121.202319","address":"桃園中壢區中正路1214號","city":"桃園"},
{"id":"215","place_id":"ChIJPZv3UsQjaDQR96ZWY4nALn8","title":"夢行者活動整合企劃","lat":"24.9696408","lng":"121.2023516","address":"桃園中壢區中正路1210號","city":"桃園"},
{"id":"216","place_id":"ChIJK8RwccYjaDQRhqiUqysH_q0","title":"央大機車","lat":"24.96858989999999","lng":"121.202258","address":"桃園中壢區中正路1215號","city":"桃園"},
{"id":"217","place_id":"ChIJTf1WzsUjaDQRGFMlp9VUs7k","title":"台州企業股份有限公司","lat":"24.9681894","lng":"121.2030507","address":"桃園中壢區中正路1154號","city":"桃園"},
{"id":"218","place_id":"ChIJ_VT48sQjaDQRQ9rkkwzybRo","title":"潤泰公司","lat":"24.970979","lng":"121.2012705","address":"桃園Taiwan","city":"桃園"},
{"id":"219","place_id":"ChIJNfxANcQjaDQRzHSzXeCLIPA","title":"中央大學(中大路口)","lat":"24.96877049999999","lng":"121.202457","address":"桃園Taiwan","city":"桃園"},
{"id":"220","place_id":"ChIJCfJTXsQjaDQRbwYnTwyPBMg","title":"德富玻璃明鏡(有)","lat":"24.970269","lng":"121.201256","address":"桃園中壢區中正路1319號","city":"桃園"},
{"id":"221","place_id":"ChIJHYMcaMQjaDQRtCjPZVrwfJs","title":"和新地政士事務所","lat":"24.9697779","lng":"121.2010806","address":"桃園中壢區中正路1307巷20弄18號","city":"桃園"},
{"id":"222","place_id":"ChIJGbfa-cQjaDQR6nKCNHpd888","title":"日興傢俱","lat":"24.9705238","lng":"121.2018604","address":"桃園Taiwan","city":"桃園"},
{"id":"223","place_id":"ChIJnWpk98QjaDQRf-F730ZjUqU","title":"宏記汽車材料行","lat":"24.9705738","lng":"121.2018585","address":"桃園中壢區中正路1252號","city":"桃園"},
{"id":"224","place_id":"ChIJXXTG-8QjaDQRoGYl2sfxGr0","title":"奕明汽車修理廠-中壢汽車保養廠 | 輪胎","lat":"24.9706354","lng":"121.2017905","address":"桃園中壢區中正路1256號","city":"桃園"},
{"id":"225","place_id":"ChIJk0EuTsQjaDQR9gY_Ah_PbFU","title":"順達輪胎行","lat":"24.9695735","lng":"121.2020251","address":"桃園Taiwan","city":"桃園"},
{"id":"226","place_id":"ChIJNdA8-cQjaDQRLwVUZTjzVyA","title":"潔朋汽車美容中壢中正店","lat":"24.970466","lng":"121.2020999","address":"桃園中壢區中正路1246號","city":"桃園"},
{"id":"227","place_id":"ChIJwXldbcYjaDQR-lAgZAqMI2c","title":"萊爾富便利商店 中壢桃通店","lat":"24.966488","lng":"121.203877","address":"桃園中壢區中正路1096號","city":"桃園"},
{"id":"228","place_id":"ChIJk6O72sUjaDQRXQf0AW32Rjo","title":"騰元工程","lat":"24.9679036","lng":"121.2033979","address":"桃園號, No. 1152, 中正路, 中壢區","city":"桃園"},
{"id":"229","place_id":"ChIJBZmmZcYjaDQRK9e-iBRhCNk","title":"得興電器有限公司","lat":"24.966508","lng":"121.203131","address":"桃園中壢區中正路1073號","city":"桃園"},
{"id":"230","place_id":"ChIJBZmmZcYjaDQRKoWXA_koeIk","title":"Kolin歌林(得興電器有限公司)","lat":"24.966508","lng":"121.203131","address":"桃園中壢區中正路1073號","city":"桃園"},
{"id":"231","place_id":"ChIJX44MfMgjaDQRLk4DtrNCoDU","title":"益合電器有限公司","lat":"24.9663747","lng":"121.2035577","address":"桃園中壢區中正路1043號","city":"桃園"},
{"id":"232","place_id":"ChIJwXldbcYjaDQR4CLjoCtHNoo","title":"國泰世華銀行ATM(萊爾富超商-中壢桃通","lat":"24.966488","lng":"121.203878","address":"桃園中壢區中正路1096號","city":"桃園"},
{"id":"233","place_id":"ChIJv40e9sYjaDQR2pF2dclDorA","title":"錦翔電子有限公司-SMD DIP加工代工","lat":"24.965824","lng":"121.2025929","address":"桃園中壢區中正路1041巷38弄23號","city":"桃園"},
{"id":"234","place_id":"ChIJzZvKBMYjaDQR6LnyT1Yrtgs","title":"五龍工程有限公司","lat":"24.966279","lng":"121.204947","address":"桃園中壢市中正路1062巷26號","city":"桃園"},
{"id":"235","place_id":"ChIJuSek0cUjaDQR1H26vI90X3I","title":"正新","lat":"24.9679056","lng":"121.2030113","address":"桃園Taiwan","city":"桃園"},
{"id":"236","place_id":"ChIJEZTvp4kjaDQRX65siMP5f5g","title":"上味小吃店","lat":"24.9677181","lng":"121.20301","address":"桃園中壢區中正路1136號號, No","city":"桃園"},
{"id":"237","place_id":"ChIJ6zK01sUjaDQRANQ0wJLYDX0","title":"八方輪業有限公司","lat":"24.9677181","lng":"121.20301","address":"桃園號, No. 1136, 中正路, 中壢區","city":"桃園"},
{"id":"238","place_id":"ChIJkzXwwsUjaDQRh21YqkCOdvU","title":"聯達汽車修理廠","lat":"24.9677362","lng":"121.2030675","address":"桃園中壢區中正路1130號","city":"桃園"},
{"id":"239","place_id":"ChIJNesR0MUjaDQR9ow7qKddkCA","title":"裕華 汽車冷氣電機材料","lat":"24.967949","lng":"121.203199","address":"桃園中壢區中正路1154-4號","city":"桃園"},
{"id":"240","place_id":"ChIJjYKsqscjaDQRiTq0FbvQ8V8","title":"有登有限公司\/德泰角鋼鐵櫃家具行","lat":"24.96433799999999","lng":"121.202392","address":"桃園中壢區三民路一段489號","city":"桃園"},
{"id":"241","place_id":"ChIJLR_7zscjaDQROEZgVZgr-nc","title":"台灣中油松柏站","lat":"24.9641599","lng":"121.2046239","address":"桃園中壢區志廣路266號","city":"桃園"},
{"id":"242","place_id":"ChIJC-CGLMYjaDQR-FNEqzSPDQU","title":"中壢食品行","lat":"24.9644187","lng":"121.2050105","address":"桃園中壢區中正路959號","city":"桃園"},
{"id":"243","place_id":"ChIJN4syx8cjaDQRom4KcazrsqI","title":"巨禾食品","lat":"24.9634878","lng":"121.2040937","address":"桃園中壢區志廣路259號","city":"桃園"},
{"id":"244","place_id":"ChIJo34LO8YjaDQRkrBNKoYLpCY","title":"台灣中油 北基正中站","lat":"24.965226","lng":"121.204408","address":"桃園中壢區中正路1015號","city":"桃園"},
{"id":"245","place_id":"ChIJcTEON8YjaDQRsg8fd3MdM0E","title":"三民","lat":"24.9650065","lng":"121.204185","address":"桃園Taiwan","city":"桃園"},
{"id":"246","place_id":"ChIJ335NFcYjaDQRT6RNJjPDs84","title":"統一精工-速邁樂中壢站","lat":"24.9649695","lng":"121.2038728","address":"桃園中壢區志廣路311號","city":"桃園"},
{"id":"247","place_id":"ChIJq8zXp68jaDQRNKF2bMohGio","title":"永大營造有限公司","lat":"24.9656595","lng":"121.2029087","address":"桃園中壢區中正路1041巷38弄5號","city":"桃園"},
{"id":"248","place_id":"ChIJt0amYMYjaDQRHawGT9euB4k","title":"劉紳基","lat":"24.96611","lng":"121.20284","address":"桃園中壢市中正路1041巷38弄36號","city":"桃園"},
{"id":"249","place_id":"ChIJ7amoa8YjaDQRPHSpdGflV1Q","title":"眾益農業生技股份有限公司","lat":"24.96605869999999","lng":"121.2037197","address":"桃園中壢區中正路1043號","city":"桃園"},
{"id":"250","place_id":"ChIJ30DSh8gjaDQRN3d7klRm9yc","title":"嘉南羊乳南桃園經銷處","lat":"24.9641679","lng":"121.206074","address":"桃園中壢區中正路930號","city":"桃園"},
{"id":"251","place_id":"ChIJf6LTt8cjaDQRNGQkdWcfDfU","title":"中壢冠發家具(中壢區志廣路275號）","lat":"24.964001","lng":"121.203937","address":"桃園No. 275, 志廣路, 中壢區","city":"桃園"},
{"id":"252","place_id":"ChIJ38ObtccjaDQRdxwWDA4dAxI","title":"張常棟","lat":"24.9643269","lng":"121.203902","address":"桃園中壢區志廣路287號","city":"桃園"},
{"id":"253","place_id":"ChIJQbv5UDMiaDQRWSVosIbblKg","title":"民馨企業有限公司","lat":"24.963507","lng":"121.2031349","address":"桃園中壢區志廣路263巷50號","city":"桃園"},
{"id":"254","place_id":"ChIJedKfsscjaDQRSUya7efuvlQ","title":"大昇開發有限公司","lat":"24.964578","lng":"121.203252","address":"桃園中壢區三民路一段688號之1號1樓","city":"桃園"},
{"id":"255","place_id":"ChIJS7h8NAmpQjQR1hOuWsHt56g","title":"薆悅酒店西寧館","lat":"25.045057","lng":"121.5066865","address":"台北萬華區西寧南路107號","city":"台北"},
{"id":"256","place_id":"ChIJX10H1gipQjQRfmZjnra3znU","title":"台北西門町意舍酒店","lat":"25.04516169999999","lng":"121.5055717","address":"台北萬華區武昌街二段77號","city":"台北"},
{"id":"257","place_id":"ChIJ4XLHCgmpQjQR5k7O6TLjpJY","title":"明日大飯店","lat":"25.042611","lng":"121.506969","address":"台北萬華區成都路23號","city":"台北"},
{"id":"258","place_id":"ChIJF1SmXAmpQjQR-SYcH2AsKDY","title":"丰居旅店","lat":"25.0439926","lng":"121.5077956","address":"台北萬華區中華路一段114巷17號2樓","city":"台北"},
{"id":"259","place_id":"ChIJGaoLGQmpQjQRZee3w4A0D-A","title":"馬辣頂級麻辣鴛鴦火鍋-西門店","lat":"25.04337079999999","lng":"121.5062369","address":"台北萬華區西寧南路157號2f","city":"台北"},
{"id":"260","place_id":"ChIJo5ndMQmpQjQRIduldE4rC8k","title":"二十輪旅店西門館 Swiio Hotel","lat":"25.0447195","lng":"121.5062571","address":"台北萬華區武昌街二段72號6樓","city":"台北"},
{"id":"261","place_id":"ChIJDxYG_wipQjQRuOOdY1NpjWc","title":"星聚點KTV西門館","lat":"25.043089","lng":"121.505268","address":"台北萬華區成都路81號","city":"台北"},
{"id":"262","place_id":"ChIJVaA0uA6pQjQRIm19sS0WEMk","title":"橙舍青年旅舍(台北一館)","lat":"25.0456904","lng":"121.5071045","address":"台北萬華區漢口街二段41號","city":"台北"},
{"id":"263","place_id":"ChIJzxoI9wipQjQRGFeS1blKsFY","title":"肯德基KFC-台北峨嵋餐廳","lat":"25.0433561","lng":"121.5071455","address":"台北萬華區峨嵋街14-16號","city":"台北"},
{"id":"264","place_id":"ChIJNazWIAmpQjQRoqSVTRnHUKY","title":"便所主題餐廳 西門店","lat":"25.044443","lng":"121.505753","address":"台北2f, No. 7號, 西寧南路50巷, 萬華區","city":"台北"},
{"id":"265","place_id":"ChIJ3TrpqgmpQjQREzy1cKC6zK8","title":"老天祿滷味","lat":"25.0447755","lng":"121.5072417","address":"台北萬華區武昌街二段55號","city":"台北"},
{"id":"266","place_id":"ChIJNVKv9QipQjQRjEqH7mWND24","title":"愛客發商務旅館-昆明館","lat":"25.042855","lng":"121.504849","address":"台北萬華區昆明街79號10樓","city":"台北"},
{"id":"267","place_id":"ChIJ9Y_fVQipQjQRqUFXHTOT6xs","title":"函舍旅館","lat":"25.042837","lng":"121.505239","address":"台北萬華區成都路68號4-10樓","city":"台北"},
{"id":"268","place_id":"ChIJ4blbzA6pQjQRXl42zK2uO7Y","title":"儷客旅店 - 西門町館 Click Ho","lat":"25.0455799","lng":"121.5063247","address":"台北樓之3 No. 36號, No. 10, 西寧南路, 萬華區","city":"台北"},
{"id":"269","place_id":"ChIJh2W_xg6pQjQRT1FNqzf9UV4","title":"一樂園大飯店ONETEL","lat":"25.046151","lng":"121.506753","address":"台北萬華區西寧南路24號","city":"台北"},
{"id":"270","place_id":"ChIJv_XXHQmpQjQRr9zaPgdsbDk","title":"今日-秀泰影城","lat":"25.04383","lng":"121.5054194","address":"台北萬華區峨眉街52號","city":"台北"},
{"id":"271","place_id":"ChIJSTNnDQmpQjQRgRLoM3qZnP4","title":"維記茶餐廳","lat":"25.043175","lng":"121.5069096","address":"台北萬華區成都路27巷19號","city":"台北"},
{"id":"272","place_id":"ChIJi0b12AipQjQRAzCoNJDN9Pc","title":"樂麵屋 西門店","lat":"25.0448163","lng":"121.5054968","address":"台北萬華區昆明街25號","city":"台北"},
{"id":"273","place_id":"ChIJu-AYSgipQjQRhOEY2azVBz4","title":"阿財虱目魚肚","lat":"25.0416743","lng":"121.5052719","address":"台北萬華區內江街53號","city":"台北"},
{"id":"274","place_id":"ChIJs_FkWQipQjQRX1nfUDThtnI","title":"牛軋堂牛肉麵本家","lat":"25.04282","lng":"121.504693","address":"台北萬華區昆明街134之2號","city":"台北"},
{"id":"275","place_id":"ChIJJbPcpwmpQjQRxCFK-CvIrMI","title":"蜂大咖啡","lat":"25.042566","lng":"121.506354","address":"台北萬華區成都路42號","city":"台北"},
{"id":"276","place_id":"ChIJI5RGAAmpQjQRfHtquQDlghY","title":"鍋爸涮涮鍋","lat":"25.0429491","lng":"121.5056906","address":"台北萬華區成都路67號B1","city":"台北"},
{"id":"277","place_id":"ChIJhdMqVAipQjQRo-tVQopqjIw","title":"幸福旅店","lat":"25.0427653","lng":"121.5052845","address":"台北萬華區內江街55巷26號","city":"台北"},
{"id":"278","place_id":"ChIJ-Un9ewmpQjQRNBfaAz64DMM","title":"天禾旅店","lat":"25.042657","lng":"121.5079953","address":"台北萬華區中華路一段152號5樓","city":"台北"},
{"id":"279","place_id":"ChIJi-yspAmpQjQRxcHc_lwnNHw","title":"西門紅樓","lat":"25.0420139","lng":"121.5068592","address":"台北萬華區成都路10號","city":"台北"},
{"id":"280","place_id":"ChIJC2orkwmpQjQRcCWYB-80Pu0","title":"寶格利時尚旅館","lat":"25.04106599999999","lng":"121.507541","address":"台北萬華區中華路一段168號","city":"台北"},
{"id":"281","place_id":"ChIJ81-hHQqpQjQRvp7KdrLBimA","title":"臺北國軍英雄館","lat":"25.0403005","lng":"121.5083719","address":"台北中正區長沙街一段20號","city":"台北"},
{"id":"282","place_id":"ChIJ2QZevAqpQjQRlfdyg7-UV5w","title":"新驛旅店西門捷運店","lat":"25.0419055","lng":"121.5093133","address":"台北中正區寶慶路63號","city":"台北"},
{"id":"283","place_id":"ChIJ5-PXYwmpQjQRgP00DljFP6A","title":"紅磡 港式飲茶婚宴會館 中華店","lat":"25.043161","lng":"121.5080755","address":"台北萬華區中華路一段144號2F","city":"台北"},
{"id":"284","place_id":"ChIJf-KGJAipQjQR4eyAG9c7b-A","title":"洛碁大飯店新仕界New World Ho","lat":"25.040944","lng":"121.504555","address":"台北萬華區昆明街141號","city":"台北"},
{"id":"285","place_id":"ChIJy9yiTQupQjQRdRN_35Gvfi8","title":"SKYLARK","lat":"25.0411814","lng":"121.5092318","address":"台北中正區寶慶路32號","city":"台北"},
{"id":"286","place_id":"ChIJqfSGzgupQjQRISgp_6SKYQ0","title":"于記杏仁豆腐","lat":"25.042321","lng":"121.50936","address":"台北中正區衡陽路101號","city":"台北"},
{"id":"287","place_id":"ChIJY6D4wAupQjQRG6h_C0gEY7I","title":"中山堂堡壘古蹟餐廳","lat":"25.0431845","lng":"121.5098284","address":"台北中正區延平南路98號2F","city":"台北"},
{"id":"288","place_id":"ChIJtWJg_QupQjQRo2Bsg9NowJ0","title":"鴨肉扁土鵝專賣店","lat":"25.044232","lng":"121.5084477","address":"台北萬華區中華路一段98之2號","city":"台北"},
{"id":"289","place_id":"ChIJw-mPDQmpQjQRGKNsjBo1Jlo","title":"Good9stay","lat":"25.0431916","lng":"121.5067722","address":"台北五樓, No. 10號, 成都路27巷, 萬華區","city":"台北"},
{"id":"290","place_id":"ChIJf6JBTAypQjQR3yyfOzXv-EQ","title":"台北西門儷萊商旅Relite Hotel","lat":"25.0463734","lng":"121.5099335","address":"台北中正區中華路一段21號","city":"台北"},
{"id":"291","place_id":"ChIJrw2KgA6pQjQRW_wAf66dTf8","title":"建宏牛肉麵","lat":"25.0474549","lng":"121.5082669","address":"台北萬華區洛陽街45之6號","city":"台北"},
{"id":"292","place_id":"ChIJ61LmrQ6pQjQRVoMEjh6SoQY","title":"西門町芒菓冰","lat":"25.0453273","lng":"121.5078624","address":"台北萬華區漢中街17號","city":"台北"},
{"id":"293","place_id":"ChIJSem5UAypQjQRBI9I-PqUb7Q","title":"力歐時尚旅館","lat":"25.046306","lng":"121.510901","address":"台北中正區延平南路9號","city":"台北"},
{"id":"294","place_id":"ChIJ43xVrQ6pQjQRbPURvIBXohY","title":"祥發港式茶餐廳 西門店","lat":"25.0449886","lng":"121.5077474","address":"台北萬華區漢中街35-1號","city":"台北"},
{"id":"295","place_id":"ChIJf4YzfnKpQjQRlr3nfrNxQx0","title":"東一排骨總店","lat":"25.0446526","lng":"121.5104239","address":"台北中正區延平南路61號2樓","city":"台北"},
{"id":"296","place_id":"ChIJu9A7TwmpQjQRxV_baXu5fwo","title":"長虹大飯店","lat":"25.0445417","lng":"121.5074312","address":"台北萬華區漢中街36號","city":"台北"},
{"id":"297","place_id":"ChIJdSSEtg6pQjQRO73f4cBNU-E","title":"楊記花生玉米冰","lat":"25.0454797","lng":"121.5072131","address":"台北萬華區漢口街二段38號","city":"台北"},
{"id":"298","place_id":"ChIJc0gIXQypQjQRxvme2Jm_ABE","title":"清真黃牛肉麵館","lat":"25.0456689","lng":"121.510751","address":"台北中正區延平南路23號","city":"台北"},
{"id":"299","place_id":"ChIJecWy_wupQjQRAM5zy3_QJ2k","title":"西門日記","lat":"25.0446674","lng":"121.5085267","address":"台北萬華區中華路一段90號12樓","city":"台北"},
{"id":"300","place_id":"ChIJc4fj4w6pQjQRTncMs5VsHX0","title":"一加一旅館","lat":"25.0470428","lng":"121.5058499","address":"台北萬華區昆明街34號3樓","city":"台北"},
{"id":"301","place_id":"ChIJC9bmhw6pQjQRMzLaT4VIVCo","title":"富宏牛肉麵","lat":"25.0476044","lng":"121.5077276","address":"台北萬華區洛陽街67-69號","city":"台北"},
{"id":"302","place_id":"ChIJ8RsDxg6pQjQRrHEKhjeHSYQ","title":"儷夏商旅 - 西門町西寧館","lat":"25.0458935","lng":"121.5067332","address":"台北萬華區西寧南路30號","city":"台北"},
{"id":"303","place_id":"ChIJNU5gAwypQjQRk_whxlSPnbI","title":"摩斯漢堡 中華店","lat":"25.0455398","lng":"121.5087662","address":"台北萬華區中華路一段80號","city":"台北"},
{"id":"304","place_id":"ChIJqQIelg6pQjQRRDo7b4wPtbQ","title":"賽門甜不辣","lat":"25.0453406","lng":"121.5067623","address":"台北萬華區西寧南路95號","city":"台北"},
{"id":"305","place_id":"ChIJVZPY5gypQjQRZ75REkKT5Ss","title":"福泰桔子商旅 開封店","lat":"25.046128","lng":"121.51255","address":"台北中正區開封街一段41號","city":"台北"},
{"id":"306","place_id":"ChIJ0y5Y7wypQjQRRtcO4ldGEKU","title":"添財日本料理開封店","lat":"25.0459417","lng":"121.5123111","address":"台北中正區開封街一段38號","city":"台北"},
{"id":"307","place_id":"ChIJcy5e5QypQjQRkSeJ17qPv5s","title":"一番地壽喜燒 開封店","lat":"25.0459092","lng":"121.5120187","address":"台北中正區開封街一段48號","city":"台北"},
{"id":"308","place_id":"ChIJY49OUwypQjQRm57el2tpaks","title":"鄭記豬腳飯","lat":"25.0468246","lng":"121.5108212","address":"台北中正區延平南路22號","city":"台北"},
{"id":"309","place_id":"ChIJv3JcKmypQjQR5zeIcMxZgIc","title":"蘑菇森林義式廚房","lat":"25.045902","lng":"121.510384","address":"台北中正區開封街一段90號","city":"台北"},
{"id":"310","place_id":"ChIJcQyRRwypQjQRGMziFgb8SGs","title":"金財神旅店Taipei Hotel Zo","lat":"25.046471","lng":"121.509877","address":"台北中正區中華路一段21號3樓","city":"台北"},
{"id":"311","place_id":"ChIJZS6CMg2pQjQRCtjboGxMUOY","title":"璽愛旅店","lat":"25.04668849999999","lng":"121.5137983","address":"台北中正區忠孝西路一段72號3樓","city":"台北"},
{"id":"312","place_id":"ChIJwy-BZBKpQjQRc8F2uh2cOTM","title":"Maiden Diner","lat":"25.0499884","lng":"121.5118661","address":"台北中正區市民大道高架道路100號","city":"台北"},
{"id":"313","place_id":"ChIJx4-gQgypQjQRsDI62PZb1Pg","title":"麗都日本料理","lat":"25.0456581","lng":"121.5105057","address":"台北中正區延平南路50號","city":"台北"},
{"id":"314","place_id":"ChIJZS6CMg2pQjQRRCYrK6GKmFk","title":"全家歡旅店","lat":"25.0467057","lng":"121.5137929","address":"台北4樓, No. 72號, 忠孝西路一段, 中正區","city":"台北"},
{"id":"315","place_id":"ChIJhxsH5gypQjQR49F2LiKJpEU","title":"華南排骨便當專門店","lat":"25.0459794","lng":"121.5123795","address":"台北中正區開封街一段36號","city":"台北"},
{"id":"316","place_id":"ChIJP2d2rA2pQjQRXCb1A0NSHvk","title":"必聖幼教專業補習班-幼教專班\/幼教師資班","lat":"25.047117","lng":"121.51094","address":"台北中正區延平南路12號9樓","city":"台北"},
{"id":"317","place_id":"ChIJxfWlRHKpQjQR6kiqesuslEo","title":"花蓮一品香","lat":"25.04731409999999","lng":"121.5134454","address":"台北中正區忠孝西路一段47-1號","city":"台北"},
{"id":"318","place_id":"ChIJCZBS9gypQjQREa5WMi5BIZc","title":"鴻佑興業有限公司","lat":"25.0459389","lng":"121.511443","address":"台北中正區博愛路9號8樓","city":"台北"},
{"id":"319","place_id":"ChIJ31bx1wypQjQRo6I-LHJ2G5U","title":"三商巧福 重南二門市","lat":"25.0462126","lng":"121.5133986","address":"台北中正區重慶南路一段11號","city":"台北"},
{"id":"320","place_id":"ChIJgRKCTG2pQjQRwVnlsS6_7-E","title":"梅樓驛站","lat":"25.0497344","lng":"121.5145053","address":"台北大同區鄭州路21巷12號","city":"台北"},
{"id":"321","place_id":"ChIJCVp2SW2pQjQRtyiHiYgzp-o","title":"後車站六洲麵線","lat":"25.049843","lng":"121.514577","address":"台北大同區太原路22巷4號","city":"台北"},
{"id":"322","place_id":"ChIJT0EexhKpQjQRBhnK-L_tUew","title":"龍蝦先生的秘密巢穴設計青旅 Mr Lob","lat":"25.050507","lng":"121.513411","address":"台北大同區重慶北路一段22號9樓","city":"台北"},
{"id":"323","place_id":"ChIJ6cxPB22pQjQRLik_97hS8Ow","title":"台北地下街(Taipei City Ma","lat":"25.0495614","lng":"121.5138922","address":"台北中正區市民大道一段100號B1","city":"台北"},
{"id":"324","place_id":"ChIJq-QH8hKpQjQRLuPfS1REQC8","title":"小熊媽媽DIY","lat":"25.0509341","lng":"121.5135414","address":"台北大同區重慶北路一段30號B1","city":"台北"},
{"id":"325","place_id":"ChIJw-Pb8hKpQjQRScWBPZ5cY7c","title":"王子戶外休閒生活館","lat":"25.050709","lng":"121.511853","address":"台北大同區延平北路一段30號","city":"台北"},
{"id":"326","place_id":"ChIJRcBQvhKpQjQRigxMAv1vUzo","title":"丰彤設計工程有限公司","lat":"25.050214","lng":"121.512885","address":"台北大同區鄭州路83巷17號3樓","city":"台北"},
{"id":"327","place_id":"ChIJPy9YWG2pQjQRvrtGqiH1X34","title":"777咖啡","lat":"25.0502875","lng":"121.5110879","address":"台北中正區市民大道100號","city":"台北"},
{"id":"328","place_id":"ChIJuWydshKpQjQRF0mcE4_ameo","title":"保豐堂金儀器有限公司","lat":"25.049487","lng":"121.514035","address":"台北大同區鄭州路33號","city":"台北"},
{"id":"329","place_id":"ChIJhZYlGA2pQjQRHfeKgx7PM9s","title":"TKB 百官網公職\/高普考\/國營\/技師補","lat":"25.047133","lng":"121.5126107","address":"台北3樓, No. 100號, 忠孝西路一段, 中正區","city":"台北"},
{"id":"330","place_id":"ChIJI7OpxhKpQjQR09rgy9tmnzg","title":"六福香水美容保養化妝品批發","lat":"25.0507212","lng":"121.5131794","address":"台北大同區重慶北路一段26巷15號","city":"台北"},
{"id":"331","place_id":"ChIJ1dg-XwipQjQRrOG-OtR7VHQ","title":"大人天國日系情趣用品店","lat":"25.05054789999999","lng":"121.513441","address":"台北大同區重慶北路一段22號","city":"台北"},
{"id":"332","place_id":"ChIJkzmoxhKpQjQRKuvL3XvwnNA","title":"大稻埕米粉湯","lat":"25.0506861","lng":"121.5131275","address":"台北大同區重慶北路一段26巷15號","city":"台北"},
{"id":"333","place_id":"ChIJ4aAzjxKpQjQRaAHmWMlDNJA","title":"執事喫茶","lat":"25.0501467","lng":"121.5116751","address":"台北中正區台北地下街Y23","city":"台北"},
{"id":"334","place_id":"ChIJa-eAJA2pQjQRCa4UaDb_V5o","title":"永豐期貨開戶手續費優惠","lat":"25.046905","lng":"121.512907","address":"台北中正區重慶南路一段2號8樓","city":"台北"},
{"id":"335","place_id":"ChIJu55KcW2pQjQRUKkzmvWDotA","title":"君品酒店","lat":"25.0494693","lng":"121.5168741","address":"台北大同區承德路一段3號","city":"台北"},
{"id":"336","place_id":"ChIJzQQf1XKpQjQRSNo7b9p5Res","title":"新驛旅店台北車站一館","lat":"25.0462145","lng":"121.5143012","address":"台北中正區懷寧街7號","city":"台北"},
{"id":"337","place_id":"ChIJBwjDPG2pQjQRC5Al4SiGSpQ","title":"獅城商務旅館","lat":"25.050286","lng":"121.515433","address":"台北6, No. 179號, 華陰街, 大同區","city":"台北"},
{"id":"338","place_id":"ChIJG36LdG2pQjQRkkhTYf4nqLU","title":"BELLINI Pasta Pasta","lat":"25.049308","lng":"121.517194","address":"台北4f, No. 1號, 承德路一段, 大同區","city":"台北"},
{"id":"339","place_id":"ChIJpWBmxm2pQjQRhgLmoRrF5Qo","title":"三多屋(外帶生魚片)","lat":"25.05001","lng":"121.5155073","address":"台北大同區華陰街42-58號","city":"台北"},
{"id":"340","place_id":"ChIJrYYudW2pQjQRrhgYhBIJW0c","title":"君品酒店 - 雲軒西餐廳 La Roti","lat":"25.0494607","lng":"121.5169766","address":"台北大同區承德路一段3號6樓","city":"台北"},
{"id":"341","place_id":"ChIJF4b9KW2pQjQRHsB61W4cGZo","title":"皇后旅社","lat":"25.0513641","lng":"121.5145551","address":"台北大同區長安西路226號2樓","city":"台北"},
{"id":"342","place_id":"ChIJm6cnPG2pQjQRRNWksBUP7_w","title":"Star Hostel Taipei M","lat":"25.05012","lng":"121.5155884","address":"台北大同區華陰街50號4F","city":"台北"},
{"id":"343","place_id":"ChIJQYuJPG2pQjQR4KzgNhGTS9c","title":"三多屋爸爸嘴","lat":"25.0503174","lng":"121.5152572","address":"台北大同區太原路19號1樓","city":"台北"},
{"id":"344","place_id":"ChIJS25lIG2pQjQRjY0cVtSe5wQ","title":"天成文旅-蜂巢 Bee House by","lat":"25.0510667","lng":"121.5155039","address":"台北大同區太原路57號","city":"台北"},
{"id":"345","place_id":"ChIJ9-OtFm2pQjQRGkmchJpoEfM","title":"岡山羊肉","lat":"25.0500674","lng":"121.5158802","address":"台北大同區華陰街42之5號","city":"台北"},
{"id":"346","place_id":"ChIJ1SD8dG2pQjQRih4EYZV9Sbg","title":"MISO東京風日本料理","lat":"25.0493507","lng":"121.5168838","address":"台北4, No. 1號, 承德路一段, 大同區","city":"台北"},
{"id":"347","place_id":"ChIJr4YudW2pQjQR6s2rQHF7d5A","title":"君品酒店 - 頤宮中餐廳 Le Pala","lat":"25.0495027","lng":"121.5169706","address":"台北大同區承德路一段3號17樓","city":"台北"},
{"id":"348","place_id":"ChIJR4UzfnKpQjQRsge_cMhUaXA","title":"翰林茶館","lat":"25.0479545","lng":"121.5167177","address":"台北中正區北平西路3號","city":"台北"},
{"id":"349","place_id":"ChIJu4-M1HKpQjQR2Ki8iXsF0Q8","title":"皇家飯店","lat":"25.0463572","lng":"121.5143144","address":"台北中正區懷寧街5-1號","city":"台北"},
{"id":"350","place_id":"ChIJG36LdG2pQjQRTUJUC0thLFE","title":"Mo-Mo-Paradise 台北京站牧","lat":"25.049308","lng":"121.517194","address":"台北大同區承德路一段1號京站時尚廣場4樓","city":"台北"},
{"id":"351","place_id":"ChIJL6i13nKpQjQR9tra0r67GKE","title":"勝博殿 站前店","lat":"25.0461278","lng":"121.515325","address":"台北中正區忠孝西路一段66號12樓","city":"台北"},
{"id":"352","place_id":"ChIJ_XCW6HKpQjQRGAhNUIRTaXI","title":"阿羅國際旅館","lat":"25.0462618","lng":"121.5158852","address":"台北中正區忠孝西路一段50號22樓之2","city":"台北"},
{"id":"353","place_id":"ChIJR4UzfnKpQjQRl6CMi8wDUfQ","title":"徹思叔叔本店","lat":"25.047243","lng":"121.516788","address":"台北中正區北平西路3號1樓號台北車站大廳南二門","city":"台北"},
{"id":"354","place_id":"ChIJneUTn3KpQjQR8_eBLgiNFMU","title":"貳樓餐廳 微風台北車站店","lat":"25.047749","lng":"121.517044","address":"台北中正區北平西路3號2F","city":"台北"},
{"id":"355","place_id":"ChIJR4UzfnKpQjQRbuMEIlJZS9I","title":"台鐵便當本舖 4號店","lat":"25.0479239","lng":"121.517081","address":"台北中正區北平西路3號臺北車站","city":"台北"},
{"id":"356","place_id":"ChIJZ6vL8HKpQjQRr30surXe1Ls","title":"咖啡園 Checkers - 凱撒大飯店","lat":"25.0462429","lng":"121.5163782","address":"台北中正區忠孝西路一段38號2F","city":"台北"},
{"id":"357","place_id":"ChIJJyn8dG2pQjQRyRwzkyIQSt0","title":"山頭火拉麵 京站店","lat":"25.0490476","lng":"121.5181099","address":"台北大同區承德路一段1號B3","city":"台北"},
{"id":"358","place_id":"ChIJHzxo8HKpQjQRBfRxUW6538E","title":"太陽蕃茄拉麵 站前本店","lat":"25.0462341","lng":"121.5164145","address":"台北中正區忠孝西路一段38號凱撤飯店B1F","city":"台北"},
{"id":"359","place_id":"ChIJ1SD8dG2pQjQRhvJ23JLqmyo","title":"饗食天堂 台北京站店","lat":"25.049308","lng":"121.5171935","address":"台北4樓, 京站時尚廣場, No. 1號, 承德路一段, 大同區","city":"台北"},
{"id":"360","place_id":"ChIJWfZUVq6pQjQR3Z-1OU8ILgo","title":"台北凱撒大飯店","lat":"25.0461817","lng":"121.5164254","address":"台北中正區忠孝西路一段38號","city":"台北"},
{"id":"361","place_id":"ChIJG36LdG2pQjQRXX8BL6jMVGU","title":"開飯川食堂 京站店","lat":"25.049308","lng":"121.5171935","address":"台北B3, 京站時尚廣場, No. 1號, 承德路一段, 大同區","city":"台北"},
{"id":"362","place_id":"ChIJ3TH9dG2pQjQRbZcq_oogDQE","title":"金色三麥 臺北京站店","lat":"25.049308","lng":"121.5171935","address":"台北大同區承德路一段1號4F","city":"台北"},
{"id":"363","place_id":"ChIJk0uU_XKpQjQRtLULt5DMK6c","title":"Royal Host 樂雅樂餐廳 - 站","lat":"25.0456764","lng":"121.5165413","address":"台北中正區許昌街19號","city":"台北"},
{"id":"364","place_id":"ChIJVRaGU3KpQjQRcW-A0_cnS3k","title":"品格子旅店北車館","lat":"25.0455","lng":"121.517414","address":"台北10f, No. 13號, 公園路, 中正區","city":"台北"},
{"id":"365","place_id":"ChIJB0JOQXKpQjQRYjQPj0z5j7I","title":"台北天成大飯店 Cosmos Hotel","lat":"25.0463688","lng":"121.5182793","address":"台北中正區忠孝西路一段43號","city":"台北"},
{"id":"366","place_id":"ChIJ1SD8dG2pQjQRNZ1M6Hj6ZLk","title":"Cold Stone酷聖石冰淇淋京站二門","lat":"25.0490809","lng":"121.5185627","address":"台北大同區承德路一段1號B2","city":"台北"},
{"id":"367","place_id":"ChIJZ3Bl622pQjQRfIywJYwRxhw","title":"大師商旅","lat":"25.0488587","lng":"121.5184843","address":"台北大同區市民大道一段209號","city":"台北"},
{"id":"368","place_id":"ChIJA8V6U3KpQjQRuDfot7kzsZM","title":"小魏川菜餐廳","lat":"25.0455","lng":"121.517414","address":"台北中正區公園路13號3樓","city":"台北"},
{"id":"369","place_id":"ChIJyZA0vg2pQjQRbQk24f9KUHE","title":"魔法咖哩-站前店","lat":"25.0454166","lng":"121.5158347","address":"台北中正區許昌街30號2樓","city":"台北"},
{"id":"370","place_id":"ChIJp-JwQ3KpQjQRyS-jwHqrQwM","title":"平田To Go 台北店","lat":"25.0464973","lng":"121.5177936","address":"台北中正區忠孝西路一段49號","city":"台北"},
{"id":"371","place_id":"ChIJA6oCvLegQjQRLfP01AU1RfA","title":"嘉林傢俱有限公司","lat":"25.0552639","lng":"121.3443691","address":"桃園龜山區大坑路三段330巷116號","city":"桃園"},
{"id":"372","place_id":"ChIJO5D9rbCgQjQRMrFu-rTxKgc","title":"富友倉儲大湖2倉","lat":"25.0518188","lng":"121.3437434","address":"桃園龜山鄉大湖路160巷45之128號","city":"桃園"},
{"id":"373","place_id":"ChIJr2FecbegQjQRtB4wFdrJuLI","title":"桐花步道","lat":"25.0538167","lng":"121.3437809","address":"桃園龜山區大坑路三段330巷","city":"桃園"},
{"id":"374","place_id":"ChIJl1gCoLegQjQR6jgRIovSXk0","title":"土地公(大庄仔土地公廟)","lat":"25.0541635","lng":"121.3441633","address":"桃園桃園區","city":"桃園"},
{"id":"375","place_id":"ChIJ3fitxregQjQR856xlAxAl9c","title":"厚島精機工業股份有限公司","lat":"25.055665","lng":"121.344534","address":"桃園龜山鄉大坑村陳厝坑16鄰11號之18","city":"桃園"},
{"id":"376","place_id":"ChIJ64m3qLCgQjQR2YjbJSOCHCU","title":"利威倉儲","lat":"25.0518732","lng":"121.3427066","address":"桃園龜山區大湖路160巷45-130號","city":"桃園"},
{"id":"377","place_id":"ChIJnXY9MKOhQjQRaln8H0-xftM","title":"尚洪林口倉","lat":"25.0561264","lng":"121.3445843","address":"桃園龜山區大坑路三段330巷","city":"桃園"},
{"id":"378","place_id":"ChIJkWihJbigQjQRb3gcEoa6p6E","title":"騰威家具有限公司","lat":"25.0561306","lng":"121.342858","address":"桃園龜山區大坑路三段462-5號","city":"桃園"},
{"id":"379","place_id":"ChIJkWihJbigQjQRR-6XRFuBbTg","title":"瑾灃紙業有限公司","lat":"25.0561306","lng":"121.342858","address":"桃園龜山區大坑路三段462-5號","city":"桃園"},
{"id":"380","place_id":"ChIJkWihJbigQjQRl8j01cR2noY","title":"台賓國際股份有限公司","lat":"25.0561306","lng":"121.342858","address":"新北泰山區大坑路三段518號","city":"新北"},
{"id":"381","place_id":"ChIJF-cuJ8igQjQRy0NYIVNg838","title":"倍適得有限公司","lat":"25.0562812","lng":"121.3444536","address":"桃園龜山區大坑路330巷1號","city":"桃園"},
{"id":"382","place_id":"ChIJO3wSJbagQjQRTiYcgNTQkf8","title":"品創木業","lat":"25.0557305","lng":"121.3464063","address":"桃園龜山區大坑路三段426之6號","city":"桃園"},
{"id":"383","place_id":"ChIJ6ay30jSnQjQRMJ18-DR7AFg","title":"鈞宏精密工業股份有限公司","lat":"25.0565612","lng":"121.3464393","address":"桃園龜山區大坑路三段426-1號","city":"桃園"},
{"id":"384","place_id":"ChIJuUBmJragQjQRXeYYq6MNGe4","title":"誠","lat":"25.055993","lng":"121.3464403","address":"桃園龜山區大坑路三段426之4號","city":"桃園"},
{"id":"385","place_id":"ChIJCdXjJragQjQRnpMAAnDoamo","title":"欣融貨運","lat":"25.0560549","lng":"121.3465456","address":"桃園龜山區","city":"桃園"},
{"id":"386","place_id":"ChIJPzus2cmgQjQRbPBVh5_p9r0","title":"鈞宏精密工業","lat":"25.0564382","lng":"121.3464494","address":"桃園龜山區大坑路三段479號","city":"桃園"},
{"id":"387","place_id":"ChIJkWihJbigQjQRR33RRlMGrPs","title":"湧泉鋼架工程有限公司","lat":"25.05720519999999","lng":"121.3451401","address":"桃園龜山區大坑路三段371號","city":"桃園"},
{"id":"388","place_id":"ChIJJxxa3MmgQjQRvK0xkQIs7KU","title":"富景驗布","lat":"25.0566517","lng":"121.3467877","address":"桃園龜山區333","city":"桃園"},
{"id":"389","place_id":"ChIJ8RqyNMigQjQRxrFM7IhMp74","title":"大坑福德祠 萬善堂","lat":"25.0575015","lng":"121.3455656","address":"桃園號, No. 479, 大坑路三段, 龜山區","city":"桃園"},
{"id":"390","place_id":"ChIJ0T62HsqgQjQRUA9JDAOR__E","title":"大翔有限公司","lat":"25.0557345","lng":"121.3475095","address":"桃園龜山區大湖路34-88號附3號","city":"桃園"},
{"id":"391","place_id":"ChIJj8ULT7igQjQRLBYXcqVSw7A","title":"洪厝","lat":"25.055488","lng":"121.3407745","address":"桃園Taiwan","city":"桃園"},
{"id":"392","place_id":"ChIJyzJ7T7igQjQRt7yy_Qy6E00","title":"洪厝","lat":"25.055553","lng":"121.340805","address":"桃園Taiwan","city":"桃園"},
{"id":"393","place_id":"ChIJYetUTrigQjQRCmkkBsI99wE","title":"洪厝","lat":"25.055423","lng":"121.340744","address":"桃園Taiwan","city":"桃園"},
{"id":"394","place_id":"ChIJN5828cigQjQRfkl-YpGVGpQ","title":"百陞玻璃棉股份有限公司(倉庫工廠）","lat":"25.058922","lng":"121.3445755","address":"桃園龜山鄉陳厝坑路885巷2號","city":"桃園"},
{"id":"395","place_id":"ChIJkSMbs8egQjQRIv47n0bckgw","title":"柏峯風管","lat":"25.060112","lng":"121.340792","address":"桃園龜山區陳厝坑路273-9 號","city":"桃園"},
{"id":"396","place_id":"ChIJkSMbs8egQjQRLH6LXTnKdKU","title":"和懋興業股份有限公司","lat":"25.060112","lng":"121.340792","address":"桃園龜山區陳厝坑路5號之11號1樓","city":"桃園"},
{"id":"397","place_id":"ChIJCVVJWMigQjQR8Jcn9r6gMoY","title":"Denfos Creative Base","lat":"25.0592248","lng":"121.3446538","address":"桃園龜山區陳厝坑路885巷8號後棟","city":"桃園"},
{"id":"398","place_id":"ChIJL2byq-ChQjQRwm9lCeRjtuU","title":"泳睿工程國際有限公司","lat":"25.0609468","lng":"121.3417271","address":"桃園龜山區陳厝坑路653巷28-2號","city":"桃園"},
{"id":"399","place_id":"ChIJh2f7WMigQjQRSPP-vwetpKY","title":"厚昌真空科技有限公司 比撒列科技興業有限","lat":"25.059839","lng":"121.344776","address":"桃園8 號, 陳厝坑路885巷, 龜山區","city":"桃園"},
{"id":"400","place_id":"ChIJZXY4276gQjQRKHD8x4bb5-M","title":"桃園威天宮","lat":"25.0549721","lng":"121.3362328","address":"桃園龜山區大坑路三段150巷6弄1號","city":"桃園"},
{"id":"401","place_id":"ChIJ69mD2b6gQjQRue7qFaVNerM","title":"愈健看護","lat":"25.0556995","lng":"121.336128","address":"桃園Taiwan","city":"桃園"},
{"id":"402","place_id":"ChIJzd1o1r6gQjQRNW3oBeLhgyk","title":"威天宮","lat":"25.055789","lng":"121.336578","address":"桃園Taiwan","city":"桃園"},
{"id":"403","place_id":"ChIJbZWLI7-gQjQRYeIA1Igpi4U","title":"喜特麗","lat":"25.056489","lng":"121.335918","address":"桃園龜山區大坑路三段101-1號","city":"桃園"},
{"id":"404","place_id":"ChIJS8Jozr6gQjQRk8QKN8aQbv0","title":"德奇興業有限公司","lat":"25.055123","lng":"121.336578","address":"桃園龜山鄉大坑路三段150巷3號之1","city":"桃園"},
{"id":"405","place_id":"ChIJI_YK3b6gQjQRijWRQvkxmB4","title":"威天宮","lat":"25.05561","lng":"121.335678","address":"桃園Taiwan","city":"桃園"},
{"id":"406","place_id":"ChIJ3ebnLrmgQjQRYDVXocw58Wg","title":"法歐國際有限公司","lat":"25.0552697","lng":"121.3375005","address":"桃園台灣省桃園市龜山區大坑路三段150巷38號之1","city":"桃園"},
{"id":"407","place_id":"ChIJ3ebnLrmgQjQR-rbEy82TP1Y","title":"中華關聖帝君文化交流協會","lat":"25.0552697","lng":"121.3375005","address":"桃園台灣省桃園市龜山區大坑路三段150巷6弄1號","city":"桃園"},
{"id":"408","place_id":"ChIJ3ebnLrmgQjQRAvky7bdGmT4","title":"泉益興國際貿易有限公司","lat":"25.0552697","lng":"121.3375005","address":"桃園台灣省桃園市龜山區大坑路三段150巷38號之1","city":"桃園"},
{"id":"409","place_id":"ChIJdSok3b6gQjQR3pS6_XRRnyA","title":"威天宮大門","lat":"25.0554906","lng":"121.3357339","address":"桃園龜山區大坑路三段150巷","city":"桃園"},
{"id":"410","place_id":"ChIJJSTjzL6gQjQRE_BISvOCIF8","title":"威天宮大聖雕像","lat":"25.054993","lng":"121.336877","address":"桃園龜山區","city":"桃園"},
{"id":"411","place_id":"ChIJAQAAAJegQjQRtjmNrHxK-bM","title":"泓翰股份有限公司","lat":"25.0557853","lng":"121.334738","address":"桃園龜山區大坑路三段132巷8之5號","city":"桃園"},
{"id":"412","place_id":"ChIJSY0UV76gQjQRBnsQH-nctxE","title":"鴻漢系統櫃","lat":"25.055958","lng":"121.3338966","address":"桃園龜山區","city":"桃園"},
{"id":"413","place_id":"ChIJP7R6Dr6gQjQRHqBJuYnSJzk","title":"佳電企業股份有限公司","lat":"25.05487","lng":"121.332296","address":"桃園龜山區大坑路二段550號","city":"桃園"},
{"id":"414","place_id":"ChIJkWihJbigQjQR3yXQp725bi8","title":"仲益電機科技有限公司","lat":"25.056887","lng":"121.331444","address":"桃園大坑路二段593-1號附8, 龜山區","city":"桃園"},
{"id":"415","place_id":"ChIJ-Va9Lb6gQjQRKhnXGo-ah0g","title":"邦特液壓科技(龜山工廠)","lat":"25.0569119","lng":"121.3320791","address":"桃園龜山區大坑路二段687之8號","city":"桃園"},
{"id":"416","place_id":"ChIJafFlD76gQjQRtClVgjjkNGw","title":"瑋銓工業","lat":"25.0547465","lng":"121.332046","address":"桃園Taiwan","city":"桃園"},
{"id":"417","place_id":"ChIJpXzRBb6gQjQRkQ9A3sMy7JU","title":"瑋銓工業","lat":"25.054714","lng":"121.331848","address":"桃園Taiwan","city":"桃園"},
{"id":"418","place_id":"ChIJy0usAWuhQjQREd3PAt77x9A","title":"上博模具有限公司","lat":"25.0547291","lng":"121.3319629","address":"桃園龜山區大坑路二段545巷10-1號","city":"桃園"},
{"id":"419","place_id":"ChIJE9POvO4laDQRodSQ0OO-ZLY","title":"SUNBIRD ENGINEERING","lat":"25.0547291","lng":"121.3319629","address":"桃園龜山區大坑路二段545巷10-1號","city":"桃園"},
{"id":"420","place_id":"ChIJB19ZDr6gQjQRt9t1zGOU7QU","title":"瑋銓工業","lat":"25.054779","lng":"121.332244","address":"桃園Taiwan","city":"桃園"},
{"id":"421","place_id":"ChIJQYFMI4KgQjQRIU6w5_Bjg-Y","title":"佳電企業股份有限公司","lat":"25.0548639","lng":"121.3323164","address":"桃園龜山區大坑路二段550號","city":"桃園"},
{"id":"422","place_id":"ChIJ5UymG7QCaDQR0q4a6du0_Y4","title":"廷翰機械有限公司","lat":"25.0550267","lng":"121.3322827","address":"桃園龜山區大坑路二段593-1號附3","city":"桃園"},
{"id":"423","place_id":"ChIJiai7G76gQjQRJcnAroQgFI4","title":"嘉懋企業有限公司","lat":"25.055255","lng":"121.331766","address":"桃園龜山區大坑路二段547號","city":"桃園"},
{"id":"424","place_id":"ChIJGZjeB5agQjQRW5oWztSfIq8","title":"德芫實業有限公司","lat":"25.054548","lng":"121.330593","address":"桃園Taiwan","city":"桃園"},
{"id":"425","place_id":"ChIJedSDB5agQjQR83Y33rgATUo","title":"峻園股份有限公司","lat":"25.0547813","lng":"121.3304634","address":"桃園龜山區大坑路二段479巷31-8號","city":"桃園"},
{"id":"426","place_id":"ChIJr_XxCJagQjQRlQiLeG95ml4","title":"世穎實業股份有限公司","lat":"25.0545236","lng":"121.330286","address":"桃園龜山區大坑路二段479巷31號之6號","city":"桃園"},
{"id":"427","place_id":"ChIJJ7Qgd76gQjQRLfft28Np2ew","title":"大坑桐花步道","lat":"25.0542922","lng":"121.3332589","address":"桃園龜山區大坑路二段560巷","city":"桃園"},
{"id":"428","place_id":"ChIJIeVt6RKhQjQRJoN7hf5Ua_U","title":"拓品系統工程有限公司","lat":"25.0535118","lng":"121.3298698","address":"桃園龜山區大坑路二段439-2號","city":"桃園"},
{"id":"429","place_id":"ChIJ8b5WSL6gQjQR78hDGI9-A4o","title":"合力奕工業有限公司","lat":"25.0562455","lng":"121.3328792","address":"桃園台灣省桃園市龜山區大坑路二段687號之4","city":"桃園"},
{"id":"430","place_id":"ChIJsRwESZugQjQRBSlBuSl9JVs","title":"新綠築國際企業有限公司","lat":"25.0565078","lng":"121.3328781","address":"桃園龜山區大坑路二段687號之1號","city":"桃園"},
{"id":"431","place_id":"ChIJiaObz0ahQjQRKxPK5FMv2Zk","title":"凱錄企業","lat":"25.0528609","lng":"121.3293689","address":"桃園龜山區大坑路二段409號","city":"桃園"},
{"id":"432","place_id":"ChIJ9xiG9cmgQjQRURz26xggvyQ","title":"明顯木業有限公司","lat":"25.05786029999999","lng":"121.3486639","address":"桃園龜山區大崗里大坑路三段469巷32號","city":"桃園"},
{"id":"433","place_id":"ChIJ6xpo38ugQjQRS1Ox2irHG04","title":"長宏青年有限公司","lat":"25.0572239","lng":"121.3488478","address":"桃園龜山區大坑路三段469巷2號","city":"桃園"},
{"id":"434","place_id":"ChIJX-7zh8mgQjQRcn37QIRxzR8","title":"獨家代理台灣品牌eXsuper oil","lat":"25.0579039","lng":"121.3488716","address":"桃園龜山區大坑路三段469巷26號","city":"桃園"},
{"id":"435","place_id":"ChIJvTSfdMmgQjQRFteDm-jPGac","title":"索瑪","lat":"25.0590672","lng":"121.3471113","address":"桃園龜山區陳厝坑路1201巷5-1號","city":"桃園"},
{"id":"436","place_id":"ChIJ2YzwLP-hQjQR0TVtpYDPLDI","title":"諾美締露營車-舊址","lat":"25.0585782","lng":"121.3469778","address":"桃園龜山區陳厝坑路1300-1號","city":"桃園"},
{"id":"437","place_id":"ChIJe_YEdb2hQjQR_BUVWJX7jiA","title":"明紘材料股份有限公司","lat":"25.0584173","lng":"121.3469999","address":"桃園龜山區陳厝坑路1300-1號","city":"桃園"},
{"id":"438","place_id":"ChIJH2P4qTWnQjQRdtZL61mMzz8","title":"怡欣企業有限公司","lat":"25.05764409999999","lng":"121.3469473","address":"桃園龜山區陳厝坑路1300-2號","city":"桃園"},
{"id":"439","place_id":"ChIJn1JtfsmgQjQRphAxSQQ-b_M","title":"正勝有限公司","lat":"25.05875289999999","lng":"121.3483551","address":"桃園大 崗 村 51 號, 大坑路三段469巷, 龜山區","city":"桃園"},
{"id":"440","place_id":"ChIJK-YE4sugQjQR0G9OP1f1hLA","title":"翔發漆業有限公司","lat":"25.0589937","lng":"121.3483854","address":"桃園龜山區大坑路三段469巷57號","city":"桃園"},
{"id":"441","place_id":"ChIJ6xpo38ugQjQRm7qMjUhN150","title":"吉揚國際有限公司","lat":"25.0595174","lng":"121.3484954","address":"桃園龜山區大坑路三段469巷57號","city":"桃園"},
{"id":"442","place_id":"ChIJo3fGXsmgQjQRgR4SshCc8p0","title":"遠東造漆","lat":"25.0601126","lng":"121.3481985","address":"桃園龜山區大坑路三段469巷","city":"桃園"},
{"id":"443","place_id":"ChIJo5DsiMmgQjQRzJh5Xir4R4w","title":"良衛環保工程股份有限公司","lat":"25.057747","lng":"121.348202","address":"桃園龜山區大湖路34-16號","city":"桃園"},
{"id":"444","place_id":"ChIJF6P8HsmgQjQRPPOOMTj0WOY","title":"山水休閒魚池","lat":"25.0601327","lng":"121.3454285","address":"桃園龜山區陳厝坑路885巷巷","city":"桃園"},
{"id":"445","place_id":"ChIJSxx828ugQjQRJCHiKQLLY0U","title":"慧毅工業股份公司","lat":"25.059241","lng":"121.348891","address":"桃園龜山區大湖路34-24號","city":"桃園"},
{"id":"446","place_id":"ChIJr_iLK8qgQjQRKhuNg5A6dW4","title":"弘商國際貿易股份有限公司","lat":"25.058136","lng":"121.34878","address":"桃園龜山區大湖路34-20號","city":"桃園"},
{"id":"447","place_id":"ChIJA13T08ugQjQRf8Lxb4JjOjc","title":"多田牌股份有限公司服務中心","lat":"25.058629","lng":"121.348976","address":"桃園龜山區大湖路34-22號","city":"桃園"},
{"id":"448","place_id":"ChIJA13T08ugQjQRuyWDzLAOX88","title":"明展木業有限公司","lat":"25.058629","lng":"121.348976","address":"桃園龜山區大湖路34-22號","city":"桃園"},
{"id":"449","place_id":"ChIJ_854KMugQjQR7iCqnDRbPQ0","title":"駒特麗工作室-龜山廠","lat":"25.0573991","lng":"121.3534715","address":"桃園龜山區大湖路39號","city":"桃園"},
{"id":"450","place_id":"ChIJ0T62HsqgQjQR2SAkFPdQmg0","title":"光禹企業有限公司","lat":"25.0565697","lng":"121.3531361","address":"桃園龜山區大湖路63-1號","city":"桃園"},
{"id":"451","place_id":"ChIJuRuAfcqgQjQRV_dUudntXXA","title":"鎮隆宮","lat":"25.0554382","lng":"121.3516137","address":"桃園龜山區大坑路三段528號","city":"桃園"},
{"id":"452","place_id":"ChIJH2P4qTWnQjQRzyVyJmrge50","title":"國慶精密股份有限公司","lat":"25.0579715","lng":"121.3538525","address":"桃園龜山區大湖路2-17號","city":"桃園"},
{"id":"453","place_id":"ChIJH6DHeLWgQjQRtM30BNgBB5E","title":"永久業有限公司","lat":"25.054714","lng":"121.351399","address":"桃園龜山鄉大崗村大湖45號之89","city":"桃園"},
{"id":"454","place_id":"ChIJm3t4bgugQjQRMhkSzEVxRuA","title":"大燈達人-車燈修復健檢中心","lat":"25.0576264","lng":"121.3545725","address":"桃園龜山區忠義路二段663號","city":"桃園"},
{"id":"455","place_id":"ChIJVRmzzTSnQjQR5GZe6JpE3EQ","title":"馬祖黑醬麵","lat":"25.0576151","lng":"121.3545691","address":"桃園龜山區忠義路二段663號","city":"桃園"},
{"id":"456","place_id":"ChIJtSdFhS2nQjQRwa9dasjVD14","title":"金耘鋼鐵股份有限公司","lat":"25.0548139","lng":"121.3507064","address":"桃園龜山區大湖路160巷48號","city":"桃園"},
{"id":"457","place_id":"ChIJRzQycLWgQjQRqwmhxde9JHI","title":"承禹實業有限公司","lat":"25.054152","lng":"121.351964","address":"桃園龜山區大湖路210巷13號","city":"桃園"},
{"id":"458","place_id":"ChIJ_y0W3cqgQjQRqIAnwGdiSYM","title":"Tray盤","lat":"25.0568347","lng":"121.3528551","address":"桃園龜山區大湖路63-1號","city":"桃園"},
{"id":"459","place_id":"ChIJdQ9gTTSnQjQRV2oz3nVeWVE","title":"7-ELEVEN 大崗門市","lat":"25.0578696","lng":"121.3542678","address":"桃園龜山區大湖路","city":"桃園"},
{"id":"460","place_id":"ChIJ0W8O68qgQjQRLduUoZjND4Q","title":"睿晨物流股份有限公司","lat":"25.056296","lng":"121.352508","address":"桃園龜山區大湖路110號","city":"桃園"},
{"id":"461","place_id":"ChIJc0Z6k8qgQjQRLYuXA5oaeLU","title":"尤冠通有限公司","lat":"25.0564436","lng":"121.352734","address":"桃園龜山區大湖路97號","city":"桃園"},
{"id":"462","place_id":"ChIJAU4J6MqgQjQRAXV3K_b-DG4","title":"餕嘉機械有限公司","lat":"25.0567732","lng":"121.3526694","address":"桃園龜山區大湖路92號","city":"桃園"},
{"id":"463","place_id":"ChIJhQ2q3wihQjQRJyAPufeGtuk","title":"翔益國際有限公司","lat":"25.0567831","lng":"121.3528764","address":"桃園龜山區大湖路65巷25-1號","city":"桃園"},
{"id":"464","place_id":"ChIJGWsR9CChQjQRL23kd3FbUGE","title":"長虹聚合股份有限公司","lat":"25.0567831","lng":"121.3528764","address":"桃園龜山區大湖路65巷25-1號","city":"桃園"},
{"id":"465","place_id":"ChIJ_y0W3cqgQjQRqCSrt369MHw","title":"鑫能超冷科技有限公司","lat":"25.0568347","lng":"121.3528551","address":"桃園台灣省桃園市龜山區大湖路63號","city":"桃園"},
{"id":"466","place_id":"ChIJlxMUksqgQjQRyZZ12x6gM0Y","title":"瑞冠機械","lat":"25.0559987","lng":"121.3520897","address":"桃園龜山區","city":"桃園"},
{"id":"467","place_id":"ChIJt5dN3MqgQjQRetpQAF-Ut2w","title":"大景工業社","lat":"25.0569447","lng":"121.3529268","address":"桃園龜山區大湖路61號","city":"桃園"},
{"id":"468","place_id":"ChIJI39qFbWgQjQR03SR05JVt9o","title":"華湧科技有限公司","lat":"25.0533159","lng":"121.352597","address":"桃園278 巷 號, No. 76-10, 大湖路, 龜山區","city":"桃園"},
{"id":"469","place_id":"ChIJaak8grWgQjQRBukW3bokYco","title":"來發搬家-桃園龜山","lat":"25.0545524","lng":"121.3502666","address":"桃園龜山區大湖路160巷50號","city":"桃園"},
{"id":"470","place_id":"ChIJzVLdnMqgQjQRqXU_n4QsxGc","title":"RENAULT TRUCKS","lat":"25.0551398","lng":"121.3521059","address":"桃園龜山區大坑路三段","city":"桃園"},
{"id":"471","place_id":"ChIJg0yDnMqgQjQR5yTjdL4U_rs","title":"麗園小吃","lat":"25.0552364","lng":"121.3521534","address":"桃園龜山區大坑路三段","city":"桃園"},
{"id":"472","place_id":"ChIJ6ay30jSnQjQRSi3cD2glxos","title":"飛達起重工程有限公司","lat":"25.0552161","lng":"121.3519641","address":"桃園龜山區大坑路三段538號","city":"桃園"},
{"id":"473","place_id":"ChIJL00lnMqgQjQRak3_PSlHnkI","title":"上等專業檳榔連鎖","lat":"25.0550902","lng":"121.3523317","address":"桃園龜山區大坑路三段","city":"桃園"},
{"id":"474","place_id":"ChIJhTdjoWqhQjQRQGQVfI70zoI","title":"禾通企業有限公司","lat":"25.0550002","lng":"121.3523273","address":"桃園龜山區大湖路160巷1號","city":"桃園"},
{"id":"475","place_id":"ChIJ0T62HsqgQjQRudBOdFU2PNI","title":"三品貿易有限公司","lat":"25.0549548","lng":"121.35234","address":"桃園龜山區大湖路203號","city":"桃園"},
{"id":"476","place_id":"ChIJy5bFnsqgQjQRYcxqmEZj_HU","title":"禾通","lat":"25.0551279","lng":"121.3524953","address":"桃園龜山區大湖一路106巷","city":"桃園"},
{"id":"477","place_id":"ChIJJdKbmcqgQjQRK-H1T_ajPug","title":"泰宇出版股份有限公司","lat":"25.055382","lng":"121.3524409","address":"桃園台灣省桃園市龜山區大湖路203號1樓","city":"桃園"},
{"id":"478","place_id":"ChIJMw8HfrWgQjQRluSErSACSUg","title":"上通汽車修理廠","lat":"25.0550231","lng":"121.3516121","address":"桃園號, No. 16, 大湖路160巷, 龜山區","city":"桃園"},
{"id":"479","place_id":"ChIJ10aDrpCgQjQRWXPoNbL5tGQ","title":"亞慶聯合物流股份有限公司","lat":"25.0515371","lng":"121.3492031","address":"桃園龜山區大湖路160巷99號","city":"桃園"},
{"id":"480","place_id":"ChIJP7rzPzKnQjQR9aCT65K6O8U","title":"環緯股份有限公司","lat":"25.0534003","lng":"121.3490262","address":"桃園No. 87, 大湖路160巷, 龜山區","city":"桃園"},
{"id":"481","place_id":"ChIJzxsGWTWnQjQR0Gony-7zsdY","title":"巨太實業股份有限公司","lat":"25.0516742","lng":"121.3496851","address":"桃園龜山區","city":"桃園"},
{"id":"482","place_id":"ChIJMQGfH7SgQjQR-9wh-GQ9TpY","title":"統一速邁自販股份有限公司","lat":"25.0516914","lng":"121.3486114","address":"桃園台灣省桃園市龜山區大湖路160巷71弄18號","city":"桃園"},
{"id":"483","place_id":"ChIJP__iHrSgQjQRCqqrHMRuDrA","title":"文偉股份有限公司","lat":"25.051574","lng":"121.348679","address":"桃園龜山鄉大崗村大湖45號之168","city":"桃園"},
{"id":"484","place_id":"ChIJQ7x107WgQjQRbUqJK7vzkF8","title":"李總秉","lat":"25.0527455","lng":"121.3487158","address":"新北林口區大湖路160巷80號","city":"新北"},
{"id":"485","place_id":"ChIJQ7x107WgQjQRNc50ML4Tal0","title":"及普通風機械股份有限公司","lat":"25.0530051","lng":"121.3485992","address":"桃園龜山區大湖路160巷110號","city":"桃園"},
{"id":"486","place_id":"ChIJMayXo8SmQjQRBgEkWOHO-jA","title":"蘇黃精密工業有限公司","lat":"25.0507428","lng":"121.3460725","address":"桃園龜山區大湖路160巷221號之3號","city":"桃園"},
{"id":"487","place_id":"ChIJzxsGWTWnQjQRJKdGYgvkDBc","title":"勝甲企業有限公司","lat":"25.0507842","lng":"121.3460002","address":"桃園龜山鄉大崗村大湖45號之42","city":"桃園"},
{"id":"488","place_id":"ChIJw6YgMrSgQjQRSDse0eUpKFg","title":"龍昌興鷹架","lat":"25.0506792","lng":"121.3461446","address":"桃園龜山區大湖路160巷221-10號","city":"桃園"},
{"id":"489","place_id":"ChIJ67tfhauhQjQRLegvP3fXqww","title":"全發塑膠","lat":"25.0531564","lng":"121.3488956","address":"桃園龜山區大湖路160巷32弄號","city":"桃園"},
{"id":"490","place_id":"ChIJX-So9bOgQjQR8BXhF-mBRds","title":"五 插 路 檳榔攤","lat":"25.0531564","lng":"121.3488956","address":"桃園龜山區大湖路160巷","city":"桃園"},
{"id":"491","place_id":"ChIJQ7x107WgQjQRNPEdYJQO8iU","title":"臺灣北區澱粉有限公司","lat":"25.0531911","lng":"121.3488768","address":"新北林口區大湖路160巷79號","city":"新北"},
{"id":"492","place_id":"ChIJAyC217CgQjQRrTkwLzPIPUo","title":"元利鑫國際有限公司","lat":"25.0506411","lng":"121.3454961","address":"桃園台灣省桃園市龜山區大湖路160巷265號之1","city":"桃園"},
{"id":"493","place_id":"ChIJdQfdM7SgQjQRA2Mu2NNn6C8","title":"元璨科技有限公司","lat":"25.0526039","lng":"121.3494186","address":"桃園號, No. 2, 大湖路160巷, 龜山區","city":"桃園"},
{"id":"494","place_id":"ChIJj-k3N7SgQjQRjISQMJsuJIs","title":"大岡倉儲","lat":"25.0524797","lng":"121.3494708","address":"桃園龜山區大湖路160巷45-89號之 6","city":"桃園"},
{"id":"495","place_id":"ChIJkSMbs8egQjQRgrKuvFqFOIA","title":"廣霖鋼鐵有限公司","lat":"25.0589143","lng":"121.3340762","address":"桃園龜山區陳厝坑路181號","city":"桃園"},
{"id":"496","place_id":"ChIJ38PXzMWmQjQRUt6h8yMuiZ4","title":"倚鋼工業有限公司","lat":"25.05816799999999","lng":"121.3338205","address":"桃園龜山區陳厝坑路167號","city":"桃園"},
{"id":"497","place_id":"ChIJkSMbs8egQjQR59WdfUFUgs8","title":"艾渥家居有限公司iwood","lat":"25.0590526","lng":"121.3346015","address":"桃園189 號, 陳厝坑路, 龜山區","city":"桃園"},
{"id":"498","place_id":"ChIJAQAAAJegQjQRfD3bgvnzirM","title":"名瀚企業有限公司","lat":"25.0573029","lng":"121.3327691","address":"桃園蘆竹區南上路388號","city":"桃園"},
{"id":"499","place_id":"ChIJFSIqtr-gQjQRA6h6oScPRUY","title":"太極節能設備科技有限公司","lat":"25.0572838","lng":"121.3327239","address":"桃園159 號, 陳厝坑路, 龜山區","city":"桃園"},
{"id":"500","place_id":"ChIJq6qqqvodaDQRv9Qt54y7yLk","title":"傑立國際實業有限公司","lat":"25.0572102","lng":"121.3332456","address":"桃園龜山區陳厝坑路161巷1號","city":"桃園"},
{"id":"501","place_id":"ChIJq-yCr7-gQjQRPgydTeElarU","title":"樹昌興業有限公司","lat":"25.057228","lng":"121.333606","address":"桃園龜山鄉大坑村陳厝坑15鄰25號之1","city":"桃園"},
{"id":"502","place_id":"ChIJP8qQZxanQjQRwFmGPTmkHf0","title":"金洲科技股份有限公司","lat":"25.0569895","lng":"121.3321729","address":"桃園龜山區大坑路二段689-8號","city":"桃園"},
{"id":"503","place_id":"ChIJE4yCf7-gQjQRSTD8XS0lSIs","title":"台灣魁業 (工廠)","lat":"25.0586075","lng":"121.3331731","address":"桃園龜山區陳厝坑路181號","city":"桃園"},
{"id":"504","place_id":"ChIJkSMbs8egQjQRqKZcMJat3ho","title":"瀚強工程有限公司","lat":"25.0590021","lng":"121.3338183","address":"桃園龜山區陳厝坑路389-3號","city":"桃園"},
{"id":"505","place_id":"ChIJkSMbs8egQjQRmNpU01erTCM","title":"東昇螺絲工業有限公司","lat":"25.0596674","lng":"121.3339053","address":"桃園龜山區陳厝坑路189-2號","city":"桃園"},
{"id":"506","place_id":"ChIJafrLf7-gQjQRaT6lu_N0iLM","title":"廣霖鋼鐵","lat":"25.05902739999999","lng":"121.3343067","address":"桃園龜山區陳厝坑路","city":"桃園"},
{"id":"507","place_id":"ChIJkSMbs8egQjQRknGkY0x2ARA","title":"三杰機械有限公司","lat":"25.0589798","lng":"121.3344905","address":"桃園龜山區陳厝坑路187號","city":"桃園"},
{"id":"508","place_id":"ChIJkREWsb-gQjQR6MGczd68h98","title":"新航快遞桃園站","lat":"25.0571398","lng":"121.3331688","address":"桃園龜山區陳厝坑路159 號","city":"桃園"},
{"id":"509","place_id":"ChIJYflozL-gQjQRZiE6nF1NnH4","title":"敏紘工程有限公司","lat":"25.057124","lng":"121.3322837","address":"桃園龜山區大坑路二段689-6 號","city":"桃園"},
{"id":"510","place_id":"ChIJSd91lMCgQjQRKgMziUzh4cQ","title":"東聯機械有限公司","lat":"25.0597883","lng":"121.3356418","address":"桃園龜山區陳厝坑路6之33號","city":"桃園"},
{"id":"511","place_id":"ChIJ33eIoo4EbjQR_3U3BM-dBG4","title":"樂逸文旅（La hotel）—六合夜市棒","lat":"22.63327","lng":"120.303029","address":"高雄新興區南華路136號","city":"高雄"},
{"id":"512","place_id":"ChIJKTktNo4EbjQRoRKMt38KIUY","title":"美麗島站 光之穹頂","lat":"22.6313751","lng":"120.3019714","address":"高雄b1, No. 115號, 中山一路, 新興區","city":"高雄"},
{"id":"513","place_id":"ChIJn-aZvY4EbjQReAIpQ_a9Imc","title":"Hotel dùa悅品中餐廳","lat":"22.6305569","lng":"120.3043135","address":"高雄新興區林森一路165號3F","city":"高雄"},
{"id":"514","place_id":"ChIJn-aZvY4EbjQROGrJtAvcibw","title":"Hotel dùa","lat":"22.6306778","lng":"120.30445","address":"高雄新興區林森一路165號","city":"高雄"},
{"id":"515","place_id":"ChIJ-Rmmy4sEbjQRlXQdDT6nwts","title":"九福大飯店","lat":"22.6333089","lng":"120.3002661","address":"高雄新興區民主路16號","city":"高雄"},
{"id":"516","place_id":"ChIJgzsxnokEbjQRU8fI1kvZ83s","title":"老江紅茶牛奶","lat":"22.6311182","lng":"120.300211","address":"高雄新興區南台路51號","city":"高雄"},
{"id":"517","place_id":"ChIJxznXwIsEbjQR_eygv0Lo5tM","title":"六合夜市\/六合觀光夜市","lat":"22.6320758","lng":"120.2991547","address":"高雄新興區六合二路","city":"高雄"},
{"id":"518","place_id":"ChIJ2RDfz4sEbjQRgo3VFRV8v7U","title":"六合日麗飯店 Sunnyside Hot","lat":"22.63282","lng":"120.300919","address":"高雄新興區六合二路30號","city":"高雄"},
{"id":"519","place_id":"ChIJf_Bp9YsEbjQRKy-oe6nVttQ","title":"吉娃娃商旅","lat":"22.6330556","lng":"120.3033333","address":"高雄新興區六合一路158號","city":"高雄"},
{"id":"520","place_id":"ChIJ-0n3r4kEbjQRqpZlRR6Bip4","title":"半九十茶屋","lat":"22.6303298","lng":"120.2996502","address":"高雄新興區中正四路71號","city":"高雄"},
{"id":"521","place_id":"ChIJHZ_pb4kEbjQRhRMQ-ropueE","title":"中央飯店","lat":"22.6313889","lng":"120.3011111","address":"高雄新興區中正四路6號","city":"高雄"},
{"id":"522","place_id":"ChIJ1xBLYokEbjQRNf8ttGD_wy8","title":"汕頭泉成沙茶火鍋-中山總店","lat":"22.6319059","lng":"120.3012799","address":"高雄新興區中山橫路7號","city":"高雄"},
{"id":"523","place_id":"ChIJByO_DIkEbjQR8kCeacRGfTc","title":"不二緻果 (高雄不二家)","lat":"22.6307541","lng":"120.3007283","address":"高雄新興區中正四路31號","city":"高雄"},
{"id":"524","place_id":"ChIJidL8z4sEbjQR4cazQwBVmD0","title":"鈕西蘭牛排館New zealand St","lat":"22.632813","lng":"120.30098","address":"高雄新興區六合二路26號","city":"高雄"},
{"id":"525","place_id":"ChIJGXPqMokEbjQRxUodWkd-f_I","title":"瑞暘行烏魚子專賣店","lat":"22.6298129","lng":"120.3031652","address":"高雄新興區復橫一路322號","city":"高雄"},
{"id":"526","place_id":"ChIJvwHSVGMEbjQRfSxiJhxNYi8","title":"貝爾手工餅乾曲奇餅乾專賣店(手工餅乾、手","lat":"22.632626","lng":"120.3023131","address":"高雄新興區中山一路176號","city":"高雄"},
{"id":"527","place_id":"ChIJCQaxXWIEbjQRvUGGBZbYhcU","title":"烤肉之家","lat":"22.632706","lng":"120.300696","address":"高雄新興區六合二路40號","city":"高雄"},
{"id":"528","place_id":"ChIJG17X8osEbjQRh_FtLTPRcn8","title":"星行旅～原創彩繪旅宿","lat":"22.63308779999999","lng":"120.3026294","address":"高雄新興區六合一路182號","city":"高雄"},
{"id":"529","place_id":"ChIJ10T7XIkEbjQRo5UX1nWHLx8","title":"美麗島站","lat":"22.6313887","lng":"120.3019131","address":"高雄新興區中山一路115號地下一樓","city":"高雄"},
{"id":"530","place_id":"ChIJSZp3dYwEbjQRSO36ig8XGdk","title":"沐川咖哩","lat":"22.633456","lng":"120.303227","address":"高雄新興區南華路123號","city":"高雄"},
{"id":"531","place_id":"ChIJmfgh9owEbjQRMAruTju1CLQ","title":"普普的風","lat":"22.6330775","lng":"120.3049392","address":"高雄新興區林森一路230號","city":"高雄"},
{"id":"532","place_id":"ChIJofinrosEbjQR9o7NocGLMU8","title":"韓國先生-春川店 한국선생-춘천","lat":"22.6344444","lng":"120.3005556","address":"高雄1, No. 33號, 七賢二路, 新興區","city":"高雄"},
{"id":"533","place_id":"ChIJ931lS4oEbjQRupXvv5w-nBk","title":"金石大飯店","lat":"22.6339347","lng":"120.3001762","address":"高雄新興區明星街32號","city":"高雄"},
{"id":"534","place_id":"ChIJ6c0YyIkEbjQRX9vZVMkaT8U","title":"舊振南餅店 中正旗艦店","lat":"22.6305309","lng":"120.2987785","address":"高雄前金區中正四路84號","city":"高雄"},
{"id":"535","place_id":"ChIJgWs05IAEbjQRFVAsEzGJarc","title":"康橋商旅 六合夜市中正館","lat":"22.6302815","lng":"120.2980097","address":"高雄前金區中正四路112號","city":"高雄"},
{"id":"536","place_id":"ChIJ1ReatokEbjQRaMgxe6zNBwk","title":"金龍彩-彌月蛋糕 麻糬 素食麵包 平安糕","lat":"22.630174","lng":"120.298969","address":"高雄前金區中正四路83號","city":"高雄"},
{"id":"537","place_id":"ChIJJ1nDu4kEbjQRdiJd5II6wvo","title":"假期商務大飯店","lat":"22.6307008","lng":"120.2992928","address":"高雄新興區中正四路72號","city":"高雄"},
{"id":"538","place_id":"ChIJcYVHMokEbjQRQ2fLB_ZjV90","title":"檸檬愛玉冰","lat":"22.6318808","lng":"120.2989103","address":"高雄新興區六合二路89-1號","city":"高雄"},
{"id":"539","place_id":"ChIJQ21k2osEbjQRSwQMGL_bAnU","title":"方記水餃（六合夜市）","lat":"22.632597","lng":"120.301125","address":"高雄新興區六合二路23號","city":"高雄"},
{"id":"540","place_id":"ChIJg_ZsnokEbjQRJX0V4TnZZbQ","title":"第9號乳酪蛋糕-美麗島店","lat":"22.6312557","lng":"120.3002085","address":"高雄新興區南台路55號","city":"高雄"},
{"id":"541","place_id":"ChIJ9a_1_YAEbjQRUgnD3rSXMH8","title":"EZ Chocolat 手工喜餅.手工巧","lat":"22.6307511","lng":"120.2994877","address":"高雄新興區中正四路66號","city":"高雄"},
{"id":"542","place_id":"ChIJHVpwKIwEbjQRZiNW-Wmteu4","title":"著火的牛阿根廷烤肉","lat":"22.6313414","lng":"120.3053857","address":"高雄新興區中正三路122號","city":"高雄"},
{"id":"543","place_id":"ChIJCfCNxI4EbjQRbzgKmTYSKbg","title":"聰明鴨肉飯（總店）","lat":"22.629577","lng":"120.304198","address":"高雄新興區復橫一路271號","city":"高雄"},
{"id":"544","place_id":"ChIJd9eQxY4EbjQRw2VtbVS-6LA","title":"泰國料理現炒小吃店","lat":"22.6297378","lng":"120.3039163","address":"高雄新興區復橫一路284號","city":"高雄"},
{"id":"545","place_id":"ChIJYc9Gj4wEbjQRAB0KWyCP3V8","title":"野饌日式燒肉 火烤兩吃活泰國蝦吃到飽 七","lat":"22.6346254","lng":"120.3037433","address":"高雄新興區七賢一路500號","city":"高雄"},
{"id":"546","place_id":"ChIJd4Cvd4sEbjQRLMr1AXKff0A","title":"藏愛婚紗攝影(高雄店)","lat":"22.6346681","lng":"120.3026399","address":"高雄新興區七賢一路532號","city":"高雄"},
{"id":"547","place_id":"ChIJmY9sCosEbjQRl6mJ193DZ90","title":"鼎王麻辣鍋(七賢店)","lat":"22.6348361","lng":"120.3011419","address":"高雄新興區七賢二路16號","city":"高雄"},
{"id":"548","place_id":"ChIJ-XS4fosEbjQRoe2LSJNU1rM","title":"拿破倫手工西服","lat":"22.634702","lng":"120.302719","address":"高雄新興區七賢一路530號","city":"高雄"},
{"id":"549","place_id":"ChIJmcyJMokEbjQRdhK5fdxuLBU","title":"正合興蜜餞行","lat":"22.6343452","lng":"120.3019183","address":"高雄新興區中山一路229號","city":"高雄"},
{"id":"550","place_id":"ChIJxy-wrnAEbjQRmpid66Nm2mk","title":"鮪魚家族飯店鹽埕館","lat":"22.624531","lng":"120.285326","address":"高雄鹽埕區莒光街200號","city":"高雄"},
{"id":"551","place_id":"ChIJzfx7qXAEbjQRH3eTA8_P8r0","title":"翰品酒店高雄 Chateau de Ch","lat":"22.6248664","lng":"120.2856229","address":"高雄鹽埕區大仁路43號","city":"高雄"},
{"id":"552","place_id":"ChIJ3do1r3sEbjQRVr1ZpRwVrpQ","title":"愛河風景區","lat":"22.6248606","lng":"120.2891291","address":"高雄前金區河東路188-1號","city":"高雄"},
{"id":"553","place_id":"ChIJzfx7qXAEbjQR0Uy44Fen1gc","title":"翰品酒店高雄- 品日式料理","lat":"22.624814","lng":"120.285633","address":"高雄鹽埕區大仁路43號","city":"高雄"},
{"id":"554","place_id":"ChIJdy0fvHAEbjQRDA3wUiaAo94","title":"巴堂蜂蜜蛋糕","lat":"22.6258382","lng":"120.284886","address":"高雄鹽埕區大勇路127號","city":"高雄"},
{"id":"555","place_id":"ChIJfxTrY3oEbjQRBgqP88zWQWc","title":"高雄市立歷史博物館 (原高雄市役所)","lat":"22.6269501","lng":"120.2867994","address":"高雄鹽埕區中正四路272號","city":"高雄"},
{"id":"556","place_id":"ChIJ-_sR93kEbjQRUmIh9B3STYY","title":"木屋家常料理","lat":"22.624144","lng":"120.28675","address":"高雄鹽埕區大智路151號","city":"高雄"},
{"id":"557","place_id":"ChIJGaqBzLQEbjQROAf-FJQ_d5U","title":"愛河愛之船","lat":"22.6246207","lng":"120.2898679","address":"高雄前金區河東路","city":"高雄"},
{"id":"558","place_id":"ChIJfaHUk3AEbjQRSAlnroJnNtI","title":"Q21 Hotel 帝后大飯店","lat":"22.6265659","lng":"120.28469","address":"高雄鹽埕區大公路21號","city":"高雄"},
{"id":"559","place_id":"ChIJq6qqqnkEbjQRduzzuhGZoPM","title":"樺達奶茶 鹽埕總店","lat":"22.6237958","lng":"120.2858493","address":"高雄鹽埕區新樂街112號","city":"高雄"},
{"id":"560","place_id":"ChIJAfB7AHoEbjQRaT7ono84EU0","title":"書包大王","lat":"22.62466599999999","lng":"120.28591","address":"高雄鹽埕區大仁路33號","city":"高雄"},
{"id":"561","place_id":"ChIJr3XDq3AEbjQRO2giaVVCrOg","title":"翰品酒店高雄- 港都茶樓","lat":"22.624863","lng":"120.285632","address":"高雄鹽埕區大仁路43號3樓","city":"高雄"},
{"id":"562","place_id":"ChIJOeds8XkEbjQRtHl03F0xI2k","title":"高雄市鹽埕區光榮國小","lat":"22.6235259","lng":"120.2873584","address":"高雄鹽埕區大智路150號","city":"高雄"},
{"id":"563","place_id":"ChIJZUy_W3cEbjQR_iN9nJCRsI0","title":"天池冬瓜茶","lat":"22.6238458","lng":"120.285406","address":"高雄鹽埕區新樂街113號","city":"高雄"},
{"id":"564","place_id":"ChIJ_QM9jnoEbjQRQvv8fQDIzX4","title":"高雄市音樂館","lat":"22.6276246","lng":"120.2868631","address":"高雄鹽埕區河西路99號","city":"高雄"},
{"id":"565","place_id":"ChIJ_xhJrHAEbjQRPCe3Xn2F_2Y","title":"Rocks 岩石音樂","lat":"22.6248934","lng":"120.2853289","address":"高雄鹽埕區莒光街219號B1","city":"高雄"},
{"id":"566","place_id":"ChIJ5_2-wXkEbjQRiepeYaVJpcI","title":"田記豆漿","lat":"22.622861","lng":"120.2870372","address":"高雄鹽埕區新樂街75之3號","city":"高雄"},
{"id":"567","place_id":"ChIJU2uyaHoEbjQR6SLeog-FuvI","title":"高雄國際會議中心 ICCK","lat":"22.6265264","lng":"120.2857339","address":"高雄鹽埕區中正四路274號","city":"高雄"},
{"id":"568","place_id":"ChIJEQtaG3oEbjQRzLJ4hjKy3d0","title":"高雄市新興衛生所鹽埕衛生站","lat":"22.6246652","lng":"120.2868012","address":"高雄鹽埕區大仁路6號","city":"高雄"},
{"id":"569","place_id":"ChIJh-Z5NIcEbjQRWlFKGoWEXIY","title":"夏慕尼新香榭鐵板燒高雄五福店","lat":"22.6219878","lng":"120.2991991","address":"高雄前金區五福三路29號","city":"高雄"},
{"id":"570","place_id":"ChIJ4wgbXYcEbjQRbVrx9LtP9fE","title":"御宿商旅-中央公園館","lat":"22.623198","lng":"120.298027","address":"高雄前金區中華三路15號","city":"高雄"},
{"id":"571","place_id":"ChIJBdXrqYAEbjQRQ6zwzafBTW4","title":"大立百貨","lat":"22.6217187","lng":"120.2982709","address":"高雄前金區五福三路57-59號","city":"高雄"},
{"id":"572","place_id":"ChIJt23AfIcEbjQRNIRKePXbIIs","title":"老四川巴蜀麻辣燙 高雄中華總店","lat":"22.6241048","lng":"120.2976335","address":"高雄前金區中華三路23-6號","city":"高雄"},
{"id":"573","place_id":"ChIJSfwPAH4EbjQRIHEbXWg62qg","title":"摩斯漢堡 大立前店","lat":"22.622109","lng":"120.297373","address":"高雄前金區五福三路52號","city":"高雄"},
{"id":"574","place_id":"ChIJZQOowIAEbjQR_CzqX-7HpEM","title":"黑澤屋","lat":"22.6207779","lng":"120.2988151","address":"高雄前金區新田路230號","city":"高雄"},
{"id":"575","place_id":"ChIJy5UGqYAEbjQRly8JriLM53s","title":"勝博殿 -高雄大立店","lat":"22.6214448","lng":"120.298507","address":"高雄前金區五福三路57號B2F","city":"高雄"},
{"id":"576","place_id":"ChIJy5UGqYAEbjQR_MB3-PAt3Mk","title":"糖朝","lat":"22.6217077","lng":"120.2982807","address":"高雄前金區五福三路57號B2","city":"高雄"},
{"id":"577","place_id":"ChIJq-LYBX4EbjQRK6ezz0ZZTvA","title":"金城鴨肉専門店","lat":"22.6219487","lng":"120.2968098","address":"高雄前金區五福三路62號","city":"高雄"},
{"id":"578","place_id":"ChIJI6BX84YEbjQRVcf_D-3UbvQ","title":"Honey Honey 義廚","lat":"22.623583","lng":"120.301706","address":"高雄高雄市新興區五福二路262號1樓(靠中山路停車場右側)","city":"高雄"},
{"id":"579","place_id":"ChIJUxqWpocEbjQRIUwU_iCWP4w","title":"中央公園","lat":"22.62473809999999","lng":"120.2994576","address":"高雄前金區","city":"高雄"},
{"id":"580","place_id":"ChIJsxrYwoAEbjQRiwetrlCgYdk","title":"包手 新田門市","lat":"22.6209515","lng":"120.299376","address":"高雄前金區中華四路332號","city":"高雄"},
{"id":"581","place_id":"ChIJidrewYYEbjQRKI62x_gVkZs","title":"麻吉咖啡","lat":"22.6226776","lng":"120.3014533","address":"高雄新興區中山二路558號","city":"高雄"},
{"id":"582","place_id":"ChIJE6IXZ4cEbjQRHrZL1TcpsAI","title":"全家便利商店 (高雄中華店)","lat":"22.62346969999999","lng":"120.2978552","address":"高雄前金區中華三路21號","city":"高雄"},
{"id":"583","place_id":"ChIJ7yO4fIcEbjQRtg58OnYTkPk","title":"鴻賓牛排館","lat":"22.6239074","lng":"120.2977629","address":"高雄前金區中華三路23-4號","city":"高雄"},
{"id":"584","place_id":"ChIJwTSJiYYEbjQROLkM5AEfBX0","title":"麥當勞 高雄五福店","lat":"22.6237106","lng":"120.3021545","address":"高雄新興區五福二路258號","city":"高雄"},
{"id":"585","place_id":"ChIJyaMyW4cEbjQRr8SFjXy1STo","title":"我家牛排","lat":"22.6228412","lng":"120.2981579","address":"高雄前金區中華三路5號","city":"高雄"},
{"id":"586","place_id":"ChIJK2akXIcEbjQROXtpcpqeD5w","title":"好樂迪KTV","lat":"22.6230544","lng":"120.2980486","address":"高雄前金區中華三路11號","city":"高雄"},
{"id":"587","place_id":"ChIJpfH9vYYEbjQREQLnA7muZy0","title":"生活樂子","lat":"22.6224518","lng":"120.3020706","address":"高雄新興區仁智街273號","city":"高雄"},
{"id":"588","place_id":"ChIJWwYWNnkEbjQR3dov5hIcVpA","title":"河堤時尚旅店","lat":"22.6221069","lng":"120.2913256","address":"高雄前金區光復二街191號","city":"高雄"},
{"id":"589","place_id":"ChIJ102ZTHgEbjQRAtnaXJ0-o0o","title":"高雄福容大飯店 Fullon Hotel","lat":"22.621363","lng":"120.287711","address":"高雄鹽埕區五福四路45號","city":"高雄"},
{"id":"590","place_id":"ChIJO7jfCHkEbjQR67Rh2pNutMI","title":"安多尼歐 Premium Steak f","lat":"22.6219601","lng":"120.2890498","address":"高雄鹽埕區河西路7-1號","city":"高雄"},
{"id":"591","place_id":"ChIJiWm7K3kEbjQRGqippb9EdQI","title":"SUBWAY 愛河店","lat":"22.620837","lng":"120.291422","address":"高雄前金區五福三路148號","city":"高雄"},
{"id":"592","place_id":"ChIJmYPq1XgEbjQRD2iIwgt5y7M","title":"天主教高雄教區玫瑰聖母聖殿主教座堂","lat":"22.6203245","lng":"120.2916188","address":"高雄苓雅區五福三路151號","city":"高雄"},
{"id":"593","place_id":"ChIJpZX39XgEbjQRTbJqt4keZoY","title":"小木屋廚房 CABIN KITCHEN","lat":"22.6202601","lng":"120.2887239","address":"高雄鹽埕區公園二路12巷13號","city":"高雄"},
{"id":"594","place_id":"ChIJqbSBdHkEbjQRZZy3GpZdl-o","title":"高雄市電影館","lat":"22.6224357","lng":"120.2887813","address":"高雄鹽埕區河西路10號","city":"高雄"},
{"id":"595","place_id":"ChIJRatfUXgEbjQRn9iJw5SV3Ng","title":"瑪莉食品行-高雄伴手禮\/愛河栗子燒\/高雄","lat":"22.620997","lng":"120.288326","address":"高雄鹽埕區五福四路25號","city":"高雄"},
{"id":"596","place_id":"ChIJVVokUngEbjQR-a2eD4kbT70","title":"新統一泓品傳統牛排館-高雄館","lat":"22.6210707","lng":"120.28816","address":"高雄鹽埕區五福四路31號","city":"高雄"},
{"id":"597","place_id":"ChIJWc-YTngEbjQRR1Y3THS-JeQ","title":"港園牛肉麵","lat":"22.6210904","lng":"120.2877845","address":"高雄鹽埕區大成街55號","city":"高雄"},
{"id":"598","place_id":"ChIJwUGvonkEbjQR8xSQ24l9JHo","title":"高雄市立鹽埕國民中學","lat":"22.62268","lng":"120.288063","address":"高雄鹽埕區新樂街46號","city":"高雄"},
{"id":"599","place_id":"ChIJpfaYq3kEbjQRSH-JdQ3q4Ow","title":"合羽亭","lat":"22.6213889","lng":"120.2883333","address":"高雄鹽埕區五福四路30號","city":"高雄"},
{"id":"600","place_id":"ChIJLR19P3gEbjQRVhmYDEDJO4U","title":"老王壽司店","lat":"22.62044119999999","lng":"120.2873929","address":"高雄鹽埕區必忠街51號","city":"高雄"},
{"id":"601","place_id":"ChIJGTp2rHkEbjQR1PA-uneBDSM","title":"友加友咖啡店","lat":"22.62144","lng":"120.2882669","address":"高雄鹽埕區五福四路34號","city":"高雄"},
{"id":"602","place_id":"ChIJ102ZTHgEbjQRBChnCeqAhlg","title":"福容大飯店-阿基師茶樓","lat":"22.621412","lng":"120.287683","address":"高雄鹽埕區五福四路45號2樓","city":"高雄"},
{"id":"603","place_id":"ChIJ73yvMX8EbjQR3LrQ5BIe15c","title":"一零四法拍網股份有限公司","lat":"22.6198667","lng":"120.2920804","address":"高雄苓雅區海邊路65號","city":"高雄"},
{"id":"604","place_id":"ChIJ9RMe5n4EbjQRy_FEzHDVDuA","title":"高雄市立高雄女子高級中學","lat":"22.6212858","lng":"120.2928418","address":"高雄前金區五福三路122號","city":"高雄"},
{"id":"605","place_id":"ChIJ2RfZqHkEbjQRsAQWmPa6T_c","title":"魚鑫 魚料理","lat":"22.621824","lng":"120.28847","address":"高雄鹽埕區大成街76號","city":"高雄"},
{"id":"606","place_id":"ChIJT1tVSXUEbjQRkKtYZtQgj5A","title":"原山形屋書店","lat":"22.6225249","lng":"120.2747744","address":"高雄鼓山區臨海三路16號","city":"高雄"},
{"id":"607","place_id":"ChIJQ4merYoDbjQRTB7LRT8m-Kg","title":"Le Bon Marché 好市集手作料","lat":"22.6209107","lng":"120.2745719","address":"高雄鼓山區鼓山一路19號","city":"高雄"},
{"id":"608","place_id":"ChIJAcqWpAoEbjQRgukcMVy2IX0","title":"丹丹漢堡 西子灣店","lat":"22.6223566","lng":"120.2733317","address":"高雄鼓山區臨海二路24號高雄捷運西子灣站","city":"高雄"},
{"id":"609","place_id":"ChIJVVVVVTkEbjQRVV4ksOC_M4g","title":"紅十字育幼中心（原愛國婦人會館）","lat":"22.6240207","lng":"120.2733851","address":"高雄鼓山區登山街28號","city":"高雄"},
{"id":"610","place_id":"ChIJe2qlr4oDbjQRPB0OWB5wxLc","title":"元氣早餐店","lat":"22.620933","lng":"120.2748247","address":"高雄鼓山區鼓山一路24之1號","city":"高雄"},
{"id":"611","place_id":"ChIJUyNSwAoEbjQR6PB8KJ3tRP8","title":"高雄市立圖書館南鼓山分館","lat":"22.623312","lng":"120.2730449","address":"高雄鼓山區延平街87之13號4樓","city":"高雄"},
{"id":"612","place_id":"ChIJ0z2DVXUEbjQRvE4KQRtOwfo","title":"捷運西子灣站","lat":"22.621548","lng":"120.274544","address":"高雄鼓山區臨海二路17之1號B1樓","city":"高雄"},
{"id":"613","place_id":"ChIJWyPTPHUEbjQRhzJUuguEbek","title":"高雄市消防局鼓山分隊","lat":"22.6232721","lng":"120.2755513","address":"高雄鼓山區臨海一路61-1號","city":"高雄"},
{"id":"614","place_id":"ChIJvc_2JnUEbjQR83RQGHEqi4k","title":"西國第一番","lat":"22.6238209","lng":"120.2752698","address":"高雄鼓山區千光路14號","city":"高雄"},
{"id":"615","place_id":"ChIJ_fL-Q3UEbjQRAvV8HjhQmis","title":"YouBike微笑單車 2.0","lat":"22.62226","lng":"120.27547","address":"高雄鼓山區鼓山分局新濱派出所","city":"高雄"},
{"id":"616","place_id":"ChIJL-8YMnUEbjQRT2WAu4COEEg","title":"青山寺","lat":"22.623419","lng":"120.2746792","address":"高雄鼓山區登山街4巷11號","city":"高雄"},
{"id":"617","place_id":"ChIJbVfD-nQEbjQR-OaQqYTCql0","title":"哈瑪星船舶企業有限公司","lat":"22.62432","lng":"120.27658","address":"高雄鼓山區鼓山一路53之2號","city":"高雄"},
{"id":"618","place_id":"ChIJkQxlWnUEbjQR84U4FwMKRWU","title":"Gogoro 電池交換站 中油南鼓山站","lat":"22.622013","lng":"120.2749353","address":"高雄鼓山區捷興二街46號","city":"高雄"},
{"id":"619","place_id":"ChIJ52GuW_UDbjQRNu2frNEgh9E","title":"英豐船務代理股份有限公司","lat":"22.6224302","lng":"120.2743553","address":"高雄鼓山區臨海一路21號","city":"高雄"},
{"id":"620","place_id":"ChIJww7mV3QEbjQRC-VewQL1k_o","title":"鐵道園區天空雲台","lat":"22.6242351","lng":"120.2772739","address":"高雄鼓山區鼓山一路","city":"高雄"},
{"id":"621","place_id":"ChIJo9E4UHUEbjQRK_dYfpaqssk","title":"台灣中油南鼓山站(直營&自助)","lat":"22.62161","lng":"120.2749566","address":"高雄鼓山區捷興二街46號","city":"高雄"},
{"id":"622","place_id":"ChIJbQ2MpgoEbjQRhMYFPJGXEwk","title":"西子灣站","lat":"22.6213249","lng":"120.2753799","address":"高雄鼓山區臨海二路17-1號","city":"高雄"},
{"id":"623","place_id":"ChIJb1FiFvUDbjQRrgG6kL5684g","title":"Jason’s Pizza House","lat":"22.6221292","lng":"120.2740915","address":"高雄鼓山區臨海一路21-3附3號","city":"高雄"},
{"id":"624","place_id":"ChIJe3JqSXUEbjQRW90CPCMPNqM","title":"壹貳樓","lat":"22.6225605","lng":"120.2748108","address":"高雄鼓山區臨海三路14號","city":"高雄"},
{"id":"625","place_id":"ChIJLbqurvUDbjQRSNbyBlpuV3I","title":"高雄渡船頭海之冰","lat":"22.6199112","lng":"120.2710724","address":"高雄鼓山區濱海一路76號","city":"高雄"},
{"id":"626","place_id":"ChIJPy9itPUDbjQRtHWUutzZ1Lw","title":"蘇阿嬤雞蛋酥","lat":"22.6198666","lng":"120.2703235","address":"高雄鼓山區濱海一路96號","city":"高雄"},
{"id":"627","place_id":"ChIJE0hJdgoEbjQRyrkRPyLbOOI","title":"阿木的店 貝果","lat":"22.622444","lng":"120.270535","address":"高雄鼓山區長安街11號","city":"高雄"},
{"id":"628","place_id":"ChIJfdNrbQoEbjQRiWsbvzndUU8","title":"阪城海鮮料理 # 駁二特區附近美食","lat":"22.6231017","lng":"120.2700838","address":"高雄鼓山區濱海二路25號1樓","city":"高雄"},
{"id":"629","place_id":"ChIJvx02qfUDbjQRAXPeZtYLSdY","title":"九日平價日式串燒","lat":"22.619954","lng":"120.27113","address":"高雄鼓山區濱海一路72號","city":"高雄"},
{"id":"630","place_id":"ChIJ_R_BVHkEbjQRwQHchG1I_LA","title":"迪波波藝食館 Deep Purple","lat":"22.6215468","lng":"120.2721643","address":"高雄鼓山區鼓元街57號","city":"高雄"},
{"id":"631","place_id":"ChIJw5qAFAoEbjQREA0E71XYgEg","title":"哈碼星第一船渠景觀步道","lat":"22.6223389","lng":"120.2699502","address":"高雄鼓山區","city":"高雄"},
{"id":"632","place_id":"ChIJTVobtPUDbjQR_ann5LQe_9M","title":"握咖啡西子灣店(總店)","lat":"22.6200113","lng":"120.2702274","address":"高雄鼓山區濱海二路5號","city":"高雄"},
{"id":"633","place_id":"ChIJTRMtrfUDbjQRFSPjhj7ovZU","title":"福泉雪花冰.布丁豆花 西子灣店","lat":"22.6197147","lng":"120.2708343","address":"高雄鼓山區濱海一路91號","city":"高雄"},
{"id":"634","place_id":"ChIJm-ZKS_QDbjQRNVBClr0BzPg","title":"收費停車場","lat":"22.6196615","lng":"120.2702933","address":"高雄鼓山區","city":"高雄"},
{"id":"635","place_id":"ChIJuUA6fAoEbjQRAT4jptGXVW0","title":"哈瑪星旗魚丸","lat":"22.6222795","lng":"120.2711759","address":"高雄鼓山區鼓波街27-7號","city":"高雄"},
{"id":"636","place_id":"ChIJTdtsfgoEbjQRI6qsEfpxPNY","title":"高雄哈瑪星代天宮","lat":"22.6225338","lng":"120.2711792","address":"高雄鼓山區鼓波街27號","city":"高雄"},
{"id":"637","place_id":"ChIJmVe8qPUDbjQRE_7EmsYCrak","title":"阿雪小吃部","lat":"22.6201595","lng":"120.2711487","address":"高雄鼓山區延平街8號","city":"高雄"},
{"id":"638","place_id":"ChIJI7E62_UDbjQRMhXqcYnHSbE","title":"一號船渠景觀橋","lat":"22.6203047","lng":"120.2696984","address":"高雄鼓山區哨船街30號","city":"高雄"},
{"id":"639","place_id":"ChIJ03-QzDgEbjQRjPCcgVeWtoQ","title":"阿珠的店","lat":"22.6199606","lng":"120.2713304","address":"高雄鼓山區濱海一路64號","city":"高雄"},
{"id":"640","place_id":"ChIJ2zQFfgoEbjQRoRUBiRyDZbA","title":"哈瑪星汕頭麵","lat":"22.6224663","lng":"120.27144","address":"高雄鼓山區鼓波街27-16號","city":"高雄"},
{"id":"641","place_id":"ChIJ-XeijwoEbjQRC51QTNQTXrE","title":"50嵐哈瑪星臨海店","lat":"22.6227954","lng":"120.2721006","address":"高雄鼓山區臨海二路41號","city":"高雄"},
{"id":"642","place_id":"ChIJhQsVhPUDbjQRbkSX6Viarzc","title":"順和排骨大王","lat":"22.6219139","lng":"120.271125","address":"高雄鼓山區鼓波街19-3號","city":"高雄"},
{"id":"643","place_id":"ChIJFfV1wfYDbjQRHdGpq6VRADM","title":"打狗英國領事館文化園區山上官邸","lat":"22.6188665","lng":"120.2668686","address":"高雄鼓山區蓮海路20號","city":"高雄"},
{"id":"644","place_id":"ChIJFfV1wfYDbjQRAcNFbfuZG0Y","title":"古典玫瑰園 Tea & Art - 打狗","lat":"22.618911","lng":"120.26685","address":"高雄鼓山區蓮海路20號","city":"高雄"},
{"id":"645","place_id":"ChIJmX-xrfYDbjQRk7ApcAw3Bto","title":"碧港良居商旅(西子灣)","lat":"22.6186053","lng":"120.2687014","address":"高雄鼓山區哨船街31號","city":"高雄"},
{"id":"646","place_id":"ChIJH_jG6_YDbjQRaJXzrA4fHxc","title":"靈興殿","lat":"22.6192379","lng":"120.2670969","address":"高雄鼓山區","city":"高雄"},
{"id":"647","place_id":"ChIJsUAuPPYDbjQRcYPMxS3RPsI","title":"打狗","lat":"22.622119","lng":"120.266928","address":"高雄高雄市鼓山區","city":"高雄"},
{"id":"648","place_id":"ChIJ1TmhVfYDbjQRgVgvnpXXwq8","title":"情侶蘿蔔坑","lat":"22.620722","lng":"120.2658889","address":"高雄鼓山區","city":"高雄"},
{"id":"649","place_id":"ChIJx_gEHfQDbjQRzVYkQWNX_zE","title":"STARBUCKS 星巴克西子灣","lat":"22.6179889","lng":"120.2685389","address":"高雄鼓山區哨船街14號","city":"高雄"},
{"id":"650","place_id":"ChIJ1TmhVfYDbjQRhxT9mKrIJ-E","title":"西子灣城垛情人座","lat":"22.620722","lng":"120.2658889","address":"高雄鼓山區","city":"高雄"},
{"id":"651","place_id":"ChIJRdjFzPYDbjQRG1Xk0B4XLao","title":"貝殼情人","lat":"22.6182226","lng":"120.2665073","address":"高雄鼓山區蓮海路18-1號","city":"高雄"},
{"id":"652","place_id":"ChIJQVlDhvYDbjQRWV8ofk0Xj5E","title":"哨船頭公園","lat":"22.6182975","lng":"120.2693573","address":"高雄鼓山區","city":"高雄"},
{"id":"653","place_id":"ChIJwcDHkvYDbjQRI0PSdgBM9a4","title":"打狗英國領事館登山古道","lat":"22.6184357","lng":"120.2670359","address":"高雄鼓山區","city":"高雄"},
{"id":"654","place_id":"ChIJVVVVVTkEbjQR-aW-0r3YZrc","title":"西子灣風景區","lat":"22.617934","lng":"120.2660636","address":"高雄鼓山區蓮海路70號","city":"高雄"},